[
  {
    "city": "Delhi",
    "lat": 28.61,
    "lng": 77.23,
    "state": "Delhi"
  },
  {
    "city": "Mumbai",
    "lat": 19.0761,
    "lng": 72.8775,
    "state": "Maharashtra"
  },
  {
    "city": "Kolkata",
    "lat": 22.5675,
    "lng": 88.37,
    "state": "West Bengal"
  },
  {
    "city": "Bangalore",
    "lat": 12.9789,
    "lng": 77.5917,
    "state": "Karnataka"
  },
  {
    "city": "Chennai",
    "lat": 13.0825,
    "lng": 80.275,
    "state": "Tamil Nadu"
  },
  {
    "city": "Hyderabad",
    "lat": 17.385,
    "lng": 78.4867,
    "state": "Telangana"
  },
  {
    "city": "Pune",
    "lat": 18.5203,
    "lng": 73.8567,
    "state": "Maharashtra"
  },
  {
    "city": "Ahmedabad",
    "lat": 23.03,
    "lng": 72.58,
    "state": "Gujarat"
  },
  {
    "city": "Surat",
    "lat": 21.1702,
    "lng": 72.8311,
    "state": "Gujarat"
  },
  {
    "city": "Prayagraj",
    "lat": 25.4358,
    "lng": 81.8464,
    "state": "Uttar Pradesh"
  },
  {
    "city": "Lucknow",
    "lat": 26.85,
    "lng": 80.95,
    "state": "Uttar Pradesh"
  },
  {
    "city": "Jaipur",
    "lat": 26.9,
    "lng": 75.8,
    "state": "Rajasthan"
  },
  {
    "city": "Cawnpore",
    "lat": 26.4499,
    "lng": 80.3319,
    "state": "Uttar Pradesh"
  },
  {
    "city": "Mirzapur",
    "lat": 25.146,
    "lng": 82.569,
    "state": "Uttar Pradesh"
  },
  {
    "city": "Nagpur",
    "lat": 21.1497,
    "lng": 79.0806,
    "state": "Maharashtra"
  },
  {
    "city": "Ghaziabad",
    "lat": 28.67,
    "lng": 77.42,
    "state": "Uttar Pradesh"
  },
  {
    "city": "Vadodara",
    "lat": 22.3,
    "lng": 73.2,
    "state": "Gujarat"
  },
  {
    "city": "Vishakhapatnam",
    "lat": 17.7042,
    "lng": 83.2978,
    "state": "Andhra Pradesh"
  },
  {
    "city": "Indore",
    "lat": 22.7167,
    "lng": 75.8472,
    "state": "Madhya Pradesh"
  },
  {
    "city": "Thane",
    "lat": 19.1972,
    "lng": 72.9722,
    "state": "Maharashtra"
  },
  {
    "city": "Bhopal",
    "lat": 23.25,
    "lng": 77.4167,
    "state": "Madhya Pradesh"
  },
  {
    "city": "Chinchvad",
    "lat": 18.6186,
    "lng": 73.8037,
    "state": "Maharashtra"
  },
  {
    "city": "Patna",
    "lat": 25.6,
    "lng": 85.1,
    "state": "Bihar"
  },
  {
    "city": "Bilaspur",
    "lat": 22.09,
    "lng": 82.15,
    "state": "Chhattīsgarh"
  },
  {
    "city": "Ludhiana",
    "lat": 30.91,
    "lng": 75.85,
    "state": "Punjab"
  },
  {
    "city": "Agra",
    "lat": 27.18,
    "lng": 78.02,
    "state": "Uttar Pradesh"
  },
  {
    "city": "Agwar",
    "lat": 27.18,
    "lng": 78.02,
    "state": "Uttar Pradesh"
  },
  {
    "city": "Madurai",
    "lat": 9.9252,
    "lng": 78.1198,
    "state": "Tamil Nadu"
  },
  {
    "city": "Jamshedpur",
    "lat": 22.7925,
    "lng": 86.1842,
    "state": "Jharkhand"
  },
  {
    "city": "Nasik",
    "lat": 20,
    "lng": 73.78,
    "state": "Maharashtra"
  },
  {
    "city": "Faridabad",
    "lat": 28.4167,
    "lng": 77.3,
    "state": "Haryana"
  },
  {
    "city": "Aurangabad",
    "lat": 19.88,
    "lng": 75.32,
    "state": "Maharashtra"
  },
  {
    "city": "Rajkot",
    "lat": 22.3,
    "lng": 70.7833,
    "state": "Gujarat"
  },
  {
    "city": "Meerut",
    "lat": 28.98,
    "lng": 77.71,
    "state": "Uttar Pradesh"
  },
  {
    "city": "Jabalpur",
    "lat": 23.1667,
    "lng": 79.9333,
    "state": "Madhya Pradesh"
  },
  {
    "city": "Kalamboli",
    "lat": 19.2333,
    "lng": 73.1333,
    "state": "Maharashtra"
  },
  {
    "city": "Vasai",
    "lat": 19.47,
    "lng": 72.8,
    "state": "Maharashtra"
  },
  {
    "city": "Najafgarh",
    "lat": 28.6092,
    "lng": 76.9798,
    "state": "Delhi"
  },
  {
    "city": "Varanasi",
    "lat": 25.3189,
    "lng": 83.0128,
    "state": "Uttar Pradesh"
  },
  {
    "city": "Srinagar",
    "lat": 34.09,
    "lng": 74.79,
    "state": "Jammu and Kashmīr"
  },
  {
    "city": "Dhanbad",
    "lat": 23.7998,
    "lng": 86.4305,
    "state": "Jharkhand"
  },
  {
    "city": "Amritsar",
    "lat": 31.64,
    "lng": 74.86,
    "state": "Punjab"
  },
  {
    "city": "Aligarh",
    "lat": 27.88,
    "lng": 78.08,
    "state": "Uttar Pradesh"
  },
  {
    "city": "Guwahati",
    "lat": 26.1722,
    "lng": 91.7458,
    "state": "Assam"
  },
  {
    "city": "Haora",
    "lat": 22.58,
    "lng": 88.3294,
    "state": "West Bengal"
  },
  {
    "city": "Ranchi",
    "lat": 23.36,
    "lng": 85.33,
    "state": "Jharkhand"
  },
  {
    "city": "Gwalior",
    "lat": 26.2215,
    "lng": 78.178,
    "state": "Madhya Pradesh"
  },
  {
    "city": "Vijayawada",
    "lat": 16.5193,
    "lng": 80.6305,
    "state": "Andhra Pradesh"
  },
  {
    "city": "Chandigarh",
    "lat": 30.75,
    "lng": 76.78,
    "state": "Chandīgarh"
  },
  {
    "city": "Jodhpur",
    "lat": 26.28,
    "lng": 73.02,
    "state": "Rajasthan"
  },
  {
    "city": "Raipur",
    "lat": 21.25,
    "lng": 81.63,
    "state": "Chhattīsgarh"
  },
  {
    "city": "Kota",
    "lat": 25.18,
    "lng": 75.83,
    "state": "Rajasthan"
  },
  {
    "city": "New Delhi",
    "lat": 28.6139,
    "lng": 77.209,
    "state": "Delhi"
  },
  {
    "city": "Bareilly",
    "lat": 28.364,
    "lng": 79.415,
    "state": "Uttar Pradesh"
  },
  {
    "city": "Coimbatore",
    "lat": 11.0168,
    "lng": 76.9558,
    "state": "Tamil Nadu"
  },
  {
    "city": "Solapur",
    "lat": 17.68,
    "lng": 75.92,
    "state": "Maharashtra"
  },
  {
    "city": "Trichinopoly",
    "lat": 10.7903,
    "lng": 78.7047,
    "state": "Tamil Nadu"
  },
  {
    "city": "Moradabad",
    "lat": 28.8389,
    "lng": 78.7769,
    "state": "Uttar Pradesh"
  },
  {
    "city": "Tiruppur",
    "lat": 11.1085,
    "lng": 77.3411,
    "state": "Tamil Nadu"
  },
  {
    "city": "Gurgaon",
    "lat": 28.456,
    "lng": 77.029,
    "state": "Haryana"
  },
  {
    "city": "Jalandhar",
    "lat": 31.2569,
    "lng": 75.4432,
    "state": "Punjab"
  },
  {
    "city": "Kalkaji Devi",
    "lat": 28.5485,
    "lng": 77.2513,
    "state": "Delhi"
  },
  {
    "city": "Bhubaneshwar",
    "lat": 20.27,
    "lng": 85.84,
    "state": "Odisha"
  },
  {
    "city": "Bhayandar",
    "lat": 19.29,
    "lng": 72.85,
    "state": "Maharashtra"
  },
  {
    "city": "Mandvi",
    "lat": 19.3,
    "lng": 72.85,
    "state": "Maharashtra"
  },
  {
    "city": "Patiala",
    "lat": 30.34,
    "lng": 76.38,
    "state": "Punjab"
  },
  {
    "city": "Dhulia",
    "lat": 20.8997,
    "lng": 74.7697,
    "state": "Maharashtra"
  },
  {
    "city": "Thiruvananthapuram",
    "lat": 8.4875,
    "lng": 76.9525,
    "state": "Kerala"
  },
  {
    "city": "Bhiwandi",
    "lat": 19.2967,
    "lng": 73.0631,
    "state": "Maharashtra"
  },
  {
    "city": "Saharanpur",
    "lat": 29.964,
    "lng": 77.546,
    "state": "Uttar Pradesh"
  },
  {
    "city": "Warangal",
    "lat": 17.9689,
    "lng": 79.5941,
    "state": "Andhra Pradesh"
  },
  {
    "city": "Shiliguri",
    "lat": 26.71,
    "lng": 88.43,
    "state": "West Bengal"
  },
  {
    "city": "Salem",
    "lat": 11.65,
    "lng": 78.15,
    "state": "Tamil Nadu"
  },
  {
    "city": "Vellore",
    "lat": 12.9165,
    "lng": 79.1325,
    "state": "Tamil Nadu"
  },
  {
    "city": "Kochi",
    "lat": 9.97,
    "lng": 76.28,
    "state": "Kerala"
  },
  {
    "city": "Gorakhpur",
    "lat": 26.7637,
    "lng": 83.4039,
    "state": "Uttar Pradesh"
  },
  {
    "city": "Narela",
    "lat": 28.8527,
    "lng": 77.0929,
    "state": "Delhi"
  },
  {
    "city": "Guntur",
    "lat": 16.3008,
    "lng": 80.4428,
    "state": "Andhra Pradesh"
  },
  {
    "city": "Rasulpur",
    "lat": 28.57,
    "lng": 77.32,
    "state": "Uttar Pradesh"
  },
  {
    "city": "Bhavnagar",
    "lat": 21.76,
    "lng": 72.15,
    "state": "Gujarat"
  },
  {
    "city": "Brahmapur",
    "lat": 19.315,
    "lng": 84.7941,
    "state": "Odisha"
  },
  {
    "city": "Noida",
    "lat": 28.57,
    "lng": 77.32,
    "state": "Uttar Pradesh"
  },
  {
    "city": "Bhangar",
    "lat": 22.58,
    "lng": 88.42,
    "state": "West Bengal"
  },
  {
    "city": "Bhilai",
    "lat": 21.3667,
    "lng": 81.7167,
    "state": "Chhattīsgarh"
  },
  {
    "city": "Mangalore",
    "lat": 12.902,
    "lng": 74.8253,
    "state": "Karnataka"
  },
  {
    "city": "Bhilai",
    "lat": 21.21,
    "lng": 81.38,
    "state": "Chhattīsgarh"
  },
  {
    "city": "Nagercoil",
    "lat": 8.1833,
    "lng": 77.4119,
    "state": "Tamil Nadu"
  },
  {
    "city": "Raurkela",
    "lat": 22.2492,
    "lng": 84.8828,
    "state": "Odisha"
  },
  {
    "city": "Cuttack",
    "lat": 20.5236,
    "lng": 85.7881,
    "state": "Odisha"
  },
  {
    "city": "Tumkur",
    "lat": 13.34,
    "lng": 77.1,
    "state": "Karnataka"
  },
  {
    "city": "Durgapur",
    "lat": 23.55,
    "lng": 87.32,
    "state": "West Bengal"
  },
  {
    "city": "Dehra Dun",
    "lat": 30.345,
    "lng": 78.029,
    "state": "Uttarakhand"
  },
  {
    "city": "Chapra",
    "lat": 25.7848,
    "lng": 84.7274,
    "state": "Bihar"
  },
  {
    "city": "Asansol",
    "lat": 23.68,
    "lng": 86.99,
    "state": "West Bengal"
  },
  {
    "city": "Kolhapur",
    "lat": 16.6917,
    "lng": 74.2333,
    "state": "Maharashtra"
  },
  {
    "city": "Nellore",
    "lat": 14.45,
    "lng": 79.99,
    "state": "Andhra Pradesh"
  },
  {
    "city": "Nanded",
    "lat": 19.15,
    "lng": 77.3,
    "state": "Maharashtra"
  },
  {
    "city": "Ajmer",
    "lat": 26.4499,
    "lng": 74.6399,
    "state": "Rajasthan"
  },
  {
    "city": "Amravati",
    "lat": 20.9258,
    "lng": 77.7647,
    "state": "Maharashtra"
  },
  {
    "city": "Gulbarga",
    "lat": 17.329,
    "lng": 76.825,
    "state": "Karnataka"
  },
  {
    "city": "Bikaner",
    "lat": 28.0167,
    "lng": 73.3119,
    "state": "Rajasthan"
  },
  {
    "city": "Agartala",
    "lat": 23.8333,
    "lng": 91.2833,
    "state": "Tripura"
  },
  {
    "city": "Loni",
    "lat": 28.75,
    "lng": 77.28,
    "state": "Uttar Pradesh"
  },
  {
    "city": "Ujjain",
    "lat": 23.17,
    "lng": 75.79,
    "state": "Madhya Pradesh"
  },
  {
    "city": "Ulhasnagar",
    "lat": 19.22,
    "lng": 73.15,
    "state": "Maharashtra"
  },
  {
    "city": "Bhilwara",
    "lat": 25.35,
    "lng": 74.63,
    "state": "Rajasthan"
  },
  {
    "city": "Jhansi",
    "lat": 25.4486,
    "lng": 78.5696,
    "state": "Uttar Pradesh"
  },
  {
    "city": "Jammu",
    "lat": 32.73,
    "lng": 74.87,
    "state": "Jammu and Kashmīr"
  },
  {
    "city": "Purnea",
    "lat": 25.778,
    "lng": 87.476,
    "state": "Bihar"
  },
  {
    "city": "Tinnevelly",
    "lat": 8.7136,
    "lng": 77.7567,
    "state": "Tamil Nadu"
  },
  {
    "city": "Belgaum",
    "lat": 15.85,
    "lng": 74.5,
    "state": "Karnataka"
  },
  {
    "city": "Jamnagar",
    "lat": 22.47,
    "lng": 70.07,
    "state": "Gujarat"
  },
  {
    "city": "Gaya",
    "lat": 24.75,
    "lng": 85.01,
    "state": "Bihar"
  },
  {
    "city": "Ambattur",
    "lat": 13.1143,
    "lng": 80.1548,
    "state": "Tamil Nadu"
  },
  {
    "city": "Salt Lake City",
    "lat": 22.61,
    "lng": 88.4,
    "state": "West Bengal"
  },
  {
    "city": "Jalgaon",
    "lat": 21.004,
    "lng": 75.568,
    "state": "Maharashtra"
  },
  {
    "city": "Kurnool",
    "lat": 15.83,
    "lng": 78.05,
    "state": "Andhra Pradesh"
  },
  {
    "city": "Udaipur",
    "lat": 24.58,
    "lng": 73.68,
    "state": "Rajasthan"
  },
  {
    "city": "Mathura",
    "lat": 27.4925,
    "lng": 77.6736,
    "state": "Uttar Pradesh"
  },
  {
    "city": "Sangli",
    "lat": 16.8667,
    "lng": 74.5667,
    "state": "Maharashtra"
  },
  {
    "city": "Davangere",
    "lat": 14.4666,
    "lng": 75.9242,
    "state": "Karnataka"
  },
  {
    "city": "Calicut",
    "lat": 11.25,
    "lng": 75.77,
    "state": "Kerala"
  },
  {
    "city": "Akola",
    "lat": 20.7,
    "lng": 77,
    "state": "Maharashtra"
  },
  {
    "city": "Bettiah",
    "lat": 26.8014,
    "lng": 84.5028,
    "state": "Bihar"
  },
  {
    "city": "Delhi Cantonment",
    "lat": 28.6,
    "lng": 77.1333,
    "state": "Delhi"
  },
  {
    "city": "Shorapur",
    "lat": 16.52,
    "lng": 76.76,
    "state": "Karnataka"
  },
  {
    "city": "Bhagalpur",
    "lat": 25.25,
    "lng": 87,
    "state": "Bihar"
  },
  {
    "city": "Bellary",
    "lat": 15.1,
    "lng": 76.9167,
    "state": "Karnataka"
  },
  {
    "city": "Padiala",
    "lat": 30.5667,
    "lng": 76.6333,
    "state": "Punjab"
  },
  {
    "city": "Quilon",
    "lat": 8.88,
    "lng": 76.6,
    "state": "Kerala"
  },
  {
    "city": "Kukatpalli",
    "lat": 17.4849,
    "lng": 78.4138,
    "state": "Andhra Pradesh"
  },
  {
    "city": "Bhatpara",
    "lat": 22.87,
    "lng": 88.41,
    "state": "West Bengal"
  },
  {
    "city": "Hazaribagh",
    "lat": 23.98,
    "lng": 85.35,
    "state": "Jharkhand"
  },
  {
    "city": "Kakinada",
    "lat": 16.9661,
    "lng": 82.255,
    "state": "Andhra Pradesh"
  },
  {
    "city": "Darbhanga",
    "lat": 26.17,
    "lng": 85.9,
    "state": "Bihar"
  },
  {
    "city": "Sirur",
    "lat": 18.83,
    "lng": 74.38,
    "state": "Maharashtra"
  },
  {
    "city": "Sardarshahr",
    "lat": 28.4401,
    "lng": 74.4908,
    "state": "Rajasthan"
  },
  {
    "city": "Panihati",
    "lat": 22.69,
    "lng": 88.37,
    "state": "West Bengal"
  },
  {
    "city": "Rohtak",
    "lat": 28.8909,
    "lng": 76.5796,
    "state": "Haryana"
  },
  {
    "city": "Maler Kotla",
    "lat": 30.5167,
    "lng": 75.8833,
    "state": "Punjab"
  },
  {
    "city": "Korba",
    "lat": 22.35,
    "lng": 82.68,
    "state": "Chhattīsgarh"
  },
  {
    "city": "Dasarhalli",
    "lat": 13.0465,
    "lng": 77.513,
    "state": "Karnataka"
  },
  {
    "city": "Sikar",
    "lat": 27.62,
    "lng": 75.15,
    "state": "Rajasthan"
  },
  {
    "city": "Sasaram",
    "lat": 24.95,
    "lng": 84.03,
    "state": "Bihar"
  },
  {
    "city": "Karur",
    "lat": 10.9601,
    "lng": 78.0766,
    "state": "Tamil Nadu"
  },
  {
    "city": "Karnal",
    "lat": 29.686,
    "lng": 76.989,
    "state": "Haryana"
  },
  {
    "city": "Chanda",
    "lat": 19.95,
    "lng": 79.297,
    "state": "Maharashtra"
  },
  {
    "city": "Ahmadnagar",
    "lat": 19.08,
    "lng": 74.73,
    "state": "Maharashtra"
  },
  {
    "city": "Avadi",
    "lat": 13.1097,
    "lng": 80.0972,
    "state": "Tamil Nadu"
  },
  {
    "city": "Rajahmundry",
    "lat": 16.98,
    "lng": 81.78,
    "state": "Andhra Pradesh"
  },
  {
    "city": "Shahjanpur",
    "lat": 27.88,
    "lng": 79.91,
    "state": "Uttar Pradesh"
  },
  {
    "city": "Hosur",
    "lat": 12.7409,
    "lng": 77.8253,
    "state": "Tamil Nadu"
  },
  {
    "city": "Cuddapah",
    "lat": 14.47,
    "lng": 78.82,
    "state": "Andhra Pradesh"
  },
  {
    "city": "Muzaffarpur",
    "lat": 26.1225,
    "lng": 85.3906,
    "state": "Bihar"
  },
  {
    "city": "Alwar",
    "lat": 27.5498,
    "lng": 76.6355,
    "state": "Rajasthan"
  },
  {
    "city": "Sambalpur",
    "lat": 21.47,
    "lng": 83.97,
    "state": "Odisha"
  },
  {
    "city": "Kamarhati",
    "lat": 22.6686,
    "lng": 88.3704,
    "state": "West Bengal"
  },
  {
    "city": "Rampur",
    "lat": 28.8,
    "lng": 79,
    "state": "Uttar Pradesh"
  },
  {
    "city": "Bijapur",
    "lat": 16.83,
    "lng": 75.71,
    "state": "Karnataka"
  },
  {
    "city": "Tharad",
    "lat": 24.3926,
    "lng": 71.6248,
    "state": "Gujarat"
  },
  {
    "city": "Ratnagiri",
    "lat": 16.9944,
    "lng": 73.3,
    "state": "Maharashtra"
  },
  {
    "city": "Shimoga",
    "lat": 13.9333,
    "lng": 75.5667,
    "state": "Karnataka"
  },
  {
    "city": "Junagadh",
    "lat": 21.52,
    "lng": 70.463,
    "state": "Gujarat"
  },
  {
    "city": "Hapur",
    "lat": 28.7309,
    "lng": 77.7757,
    "state": "Uttar Pradesh"
  },
  {
    "city": "Trichur",
    "lat": 10.52,
    "lng": 76.21,
    "state": "Kerala"
  },
  {
    "city": "Barddhaman",
    "lat": 23.2333,
    "lng": 87.8667,
    "state": "West Bengal"
  },
  {
    "city": "Panvel",
    "lat": 18.9944,
    "lng": 73.1139,
    "state": "Maharashtra"
  },
  {
    "city": "Nizamabad",
    "lat": 18.672,
    "lng": 78.094,
    "state": "Andhra Pradesh"
  },
  {
    "city": "Oulgaret",
    "lat": 11.957,
    "lng": 79.7737,
    "state": "Puducherry"
  },
  {
    "city": "Parbhani",
    "lat": 19.27,
    "lng": 76.78,
    "state": "Maharashtra"
  },
  {
    "city": "Hisar",
    "lat": 29.15,
    "lng": 75.7,
    "state": "Haryana"
  },
  {
    "city": "Maldah",
    "lat": 25.0119,
    "lng": 88.1433,
    "state": "West Bengal"
  },
  {
    "city": "Bada Barabil",
    "lat": 22.12,
    "lng": 85.4,
    "state": "Odisha"
  },
  {
    "city": "Bihar",
    "lat": 25.197,
    "lng": 85.518,
    "state": "Bihar"
  },
  {
    "city": "Sikandarabad",
    "lat": 28.4512,
    "lng": 77.6955,
    "state": "Uttar Pradesh"
  },
  {
    "city": "Bali",
    "lat": 22.65,
    "lng": 88.34,
    "state": "West Bengal"
  },
  {
    "city": "Panipat",
    "lat": 29.3875,
    "lng": 76.97,
    "state": "Haryana"
  },
  {
    "city": "Aizawl",
    "lat": 23.7272,
    "lng": 92.7178,
    "state": "Mizoram"
  },
  {
    "city": "Sonpur",
    "lat": 25.7,
    "lng": 85.18,
    "state": "Bihar"
  },
  {
    "city": "Karimnagar",
    "lat": 18.4386,
    "lng": 79.1288,
    "state": "Andhra Pradesh"
  },
  {
    "city": "Sonipat",
    "lat": 28.99,
    "lng": 77.022,
    "state": "Haryana"
  },
  {
    "city": "Dewas",
    "lat": 22.96,
    "lng": 76.06,
    "state": "Madhya Pradesh"
  },
  {
    "city": "Ichalkaranji",
    "lat": 16.7,
    "lng": 74.47,
    "state": "Maharashtra"
  },
  {
    "city": "Bhatinda",
    "lat": 30.23,
    "lng": 74.9519,
    "state": "Punjab"
  },
  {
    "city": "Jalna",
    "lat": 19.841,
    "lng": 75.8864,
    "state": "Maharashtra"
  },
  {
    "city": "Sannai",
    "lat": 24.5984,
    "lng": 80.8281,
    "state": "Madhya Pradesh"
  },
  {
    "city": "Satna",
    "lat": 24.6005,
    "lng": 80.8322,
    "state": "Madhya Pradesh"
  },
  {
    "city": "Mau",
    "lat": 25.9417,
    "lng": 83.5611,
    "state": "Uttar Pradesh"
  },
  {
    "city": "Barasat",
    "lat": 22.72,
    "lng": 88.48,
    "state": "West Bengal"
  },
  {
    "city": "Farrukhabad",
    "lat": 27.39,
    "lng": 79.581,
    "state": "Uttar Pradesh"
  },
  {
    "city": "Saugor",
    "lat": 23.83,
    "lng": 78.71,
    "state": "Madhya Pradesh"
  },
  {
    "city": "Ratlam",
    "lat": 23.334,
    "lng": 75.037,
    "state": "Madhya Pradesh"
  },
  {
    "city": "Drug",
    "lat": 21.19,
    "lng": 81.28,
    "state": "Chhattīsgarh"
  },
  {
    "city": "Handwara",
    "lat": 34.4,
    "lng": 74.28,
    "state": "Jammu and Kashmīr"
  },
  {
    "city": "Imphal",
    "lat": 24.8074,
    "lng": 93.9384,
    "state": "Manipur"
  },
  {
    "city": "Anantapur",
    "lat": 14.68,
    "lng": 77.599,
    "state": "Andhra Pradesh"
  },
  {
    "city": "Arrah",
    "lat": 25.5514,
    "lng": 84.6603,
    "state": "Bihar"
  },
  {
    "city": "Malkajgiri",
    "lat": 17.4519,
    "lng": 78.5362,
    "state": "Andhra Pradesh"
  },
  {
    "city": "Tiruvottiyur",
    "lat": 13.16,
    "lng": 80.3,
    "state": "Tamil Nadu"
  },
  {
    "city": "Etawah",
    "lat": 26.77,
    "lng": 79.03,
    "state": "Uttar Pradesh"
  },
  {
    "city": "Puducherry",
    "lat": 11.9167,
    "lng": 79.8167,
    "state": "Puducherry"
  },
  {
    "city": "Byatarayanpur",
    "lat": 13.0659,
    "lng": 77.5922,
    "state": "Karnataka"
  },
  {
    "city": "Bharatpur",
    "lat": 27.22,
    "lng": 77.48,
    "state": "Rajasthan"
  },
  {
    "city": "Gadda Madiral",
    "lat": 18.7519,
    "lng": 79.5133,
    "state": "Andhra Pradesh"
  },
  {
    "city": "Junagarh",
    "lat": 19.8599,
    "lng": 82.9338,
    "state": "Chhattīsgarh"
  },
  {
    "city": "Begusarai",
    "lat": 25.42,
    "lng": 86.13,
    "state": "Bihar"
  },
  {
    "city": "Gandhidham",
    "lat": 23.08,
    "lng": 70.13,
    "state": "Gujarat"
  },
  {
    "city": "Ramnagar",
    "lat": 27.17,
    "lng": 84.32,
    "state": "Bihar"
  },
  {
    "city": "Katihar",
    "lat": 25.53,
    "lng": 87.58,
    "state": "Bihar"
  },
  {
    "city": "Krishnarajpur",
    "lat": 13.012,
    "lng": 77.6951,
    "state": "Karnataka"
  },
  {
    "city": "Nelamangala",
    "lat": 13.102,
    "lng": 77.374,
    "state": "Karnataka"
  },
  {
    "city": "Singrauliya",
    "lat": 24.11,
    "lng": 82.39,
    "state": "Madhya Pradesh"
  },
  {
    "city": "Ramgundam",
    "lat": 18.7639,
    "lng": 79.475,
    "state": "Andhra Pradesh"
  },
  {
    "city": "Pandharpur",
    "lat": 17.6778,
    "lng": 75.3278,
    "state": "Maharashtra"
  },
  {
    "city": "Masaurhi Buzurg",
    "lat": 25.35,
    "lng": 85.02,
    "state": "Bihar"
  },
  {
    "city": "Tuticorin",
    "lat": 8.7642,
    "lng": 78.1348,
    "state": "Tamil Nadu"
  },
  {
    "city": "Ganganagar",
    "lat": 29.92,
    "lng": 73.88,
    "state": "Rajasthan"
  },
  {
    "city": "Rewa",
    "lat": 24.53,
    "lng": 81.3,
    "state": "Madhya Pradesh"
  },
  {
    "city": "Uluberiya",
    "lat": 22.47,
    "lng": 88.11,
    "state": "West Bengal"
  },
  {
    "city": "Bulandshahr",
    "lat": 28.4069,
    "lng": 77.8497,
    "state": "Uttar Pradesh"
  },
  {
    "city": "Cannanore",
    "lat": 11.8689,
    "lng": 75.3555,
    "state": "Kerala"
  },
  {
    "city": "Raichur",
    "lat": 16.2,
    "lng": 77.37,
    "state": "Karnataka"
  },
  {
    "city": "Vizianagaram",
    "lat": 18.1159,
    "lng": 83.406,
    "state": "Andhra Pradesh"
  },
  {
    "city": "Pali",
    "lat": 25.77,
    "lng": 73.33,
    "state": "Rajasthan"
  },
  {
    "city": "Songadh",
    "lat": 21.167,
    "lng": 73.564,
    "state": "Gujarat"
  },
  {
    "city": "Haridwar",
    "lat": 29.945,
    "lng": 78.163,
    "state": "Uttarakhand"
  },
  {
    "city": "Pathardi",
    "lat": 19.17,
    "lng": 75.18,
    "state": "Maharashtra"
  },
  {
    "city": "Petlad",
    "lat": 22.47,
    "lng": 72.8,
    "state": "Gujarat"
  },
  {
    "city": "Khatima",
    "lat": 28.92,
    "lng": 79.97,
    "state": "Uttarakhand"
  },
  {
    "city": "Pallavaram",
    "lat": 12.9675,
    "lng": 80.1491,
    "state": "Tamil Nadu"
  },
  {
    "city": "Nadiad",
    "lat": 22.69,
    "lng": 72.86,
    "state": "Gujarat"
  },
  {
    "city": "Tanjore",
    "lat": 10.787,
    "lng": 79.1378,
    "state": "Tamil Nadu"
  },
  {
    "city": "Kichha",
    "lat": 28.92,
    "lng": 79.5,
    "state": "Uttarakhand"
  },
  {
    "city": "Secunderabad",
    "lat": 17.4399,
    "lng": 78.4983,
    "state": "Andhra Pradesh"
  },
  {
    "city": "Tiptur",
    "lat": 13.26,
    "lng": 76.48,
    "state": "Karnataka"
  },
  {
    "city": "Katri",
    "lat": 23.48,
    "lng": 80.4,
    "state": "Madhya Pradesh"
  },
  {
    "city": "Sambhal",
    "lat": 28.58,
    "lng": 78.55,
    "state": "Uttar Pradesh"
  },
  {
    "city": "Anand",
    "lat": 22.556,
    "lng": 72.951,
    "state": "Gujarat"
  },
  {
    "city": "Naihati",
    "lat": 22.89,
    "lng": 88.42,
    "state": "West Bengal"
  },
  {
    "city": "Yamunanagar",
    "lat": 30.133,
    "lng": 77.288,
    "state": "Haryana"
  },
  {
    "city": "Monghyr",
    "lat": 25.381,
    "lng": 86.465,
    "state": "Bihar"
  },
  {
    "city": "Kapra",
    "lat": 17.4859,
    "lng": 78.5651,
    "state": "Andhra Pradesh"
  },
  {
    "city": "Shimla",
    "lat": 31.1033,
    "lng": 77.1722,
    "state": "Himachal Pradesh"
  },
  {
    "city": "Gokak",
    "lat": 16.1667,
    "lng": 74.8333,
    "state": "Karnataka"
  },
  {
    "city": "Puri",
    "lat": 19.8106,
    "lng": 85.8314,
    "state": "Odisha"
  },
  {
    "city": "Nandyal",
    "lat": 15.48,
    "lng": 78.48,
    "state": "Andhra Pradesh"
  },
  {
    "city": "Bhadravati",
    "lat": 13.8485,
    "lng": 75.705,
    "state": "Karnataka"
  },
  {
    "city": "Panchkula",
    "lat": 30.74,
    "lng": 76.8,
    "state": "Haryana"
  },
  {
    "city": "Burhanpur",
    "lat": 21.3,
    "lng": 76.23,
    "state": "Madhya Pradesh"
  },
  {
    "city": "Kiratot",
    "lat": 32.8376,
    "lng": 76.2296,
    "state": "Himachal Pradesh"
  },
  {
    "city": "Kharagpur",
    "lat": 22.3302,
    "lng": 87.3237,
    "state": "West Bengal"
  },
  {
    "city": "Dindigul",
    "lat": 10.35,
    "lng": 77.95,
    "state": "Tamil Nadu"
  },
  {
    "city": "Robertsonpet",
    "lat": 12.9563,
    "lng": 78.2754,
    "state": "Karnataka"
  },
  {
    "city": "Hospet",
    "lat": 15.2689,
    "lng": 76.3909,
    "state": "Karnataka"
  },
  {
    "city": "Lingampalli",
    "lat": 17.4865,
    "lng": 78.317,
    "state": "Andhra Pradesh"
  },
  {
    "city": "Ingraj Bazar",
    "lat": 25.0044,
    "lng": 88.1458,
    "state": "West Bengal"
  },
  {
    "city": "Ongole",
    "lat": 15.506,
    "lng": 80.049,
    "state": "Andhra Pradesh"
  },
  {
    "city": "Ellore",
    "lat": 16.7117,
    "lng": 81.1031,
    "state": "Andhra Pradesh"
  },
  {
    "city": "Betigeri",
    "lat": 15.443,
    "lng": 75.6442,
    "state": "Karnataka"
  },
  {
    "city": "Mokameh",
    "lat": 25.3898,
    "lng": 85.9191,
    "state": "Bihar"
  },
  {
    "city": "Deoghar",
    "lat": 24.48,
    "lng": 86.7,
    "state": "Jharkhand"
  },
  {
    "city": "Chhindwara",
    "lat": 22.057,
    "lng": 78.9396,
    "state": "Madhya Pradesh"
  },
  {
    "city": "Haldia",
    "lat": 22.0667,
    "lng": 88.0698,
    "state": "West Bengal"
  },
  {
    "city": "Khandwa",
    "lat": 21.82,
    "lng": 76.35,
    "state": "Madhya Pradesh"
  },
  {
    "city": "Pulimaddi",
    "lat": 15.48,
    "lng": 78.48,
    "state": "Andhra Pradesh"
  },
  {
    "city": "Morena",
    "lat": 26.5,
    "lng": 78,
    "state": "Madhya Pradesh"
  },
  {
    "city": "Amroha",
    "lat": 28.9044,
    "lng": 78.4675,
    "state": "Uttar Pradesh"
  },
  {
    "city": "Drabar",
    "lat": 33.43,
    "lng": 75.09,
    "state": "Jammu and Kashmīr"
  },
  {
    "city": "Bhind",
    "lat": 26.5587,
    "lng": 78.7871,
    "state": "Madhya Pradesh"
  },
  {
    "city": "Chakradharpur",
    "lat": 22.7,
    "lng": 85.63,
    "state": "Jharkhand"
  },
  {
    "city": "Madhyamgram",
    "lat": 22.7,
    "lng": 88.45,
    "state": "West Bengal"
  },
  {
    "city": "Khammam",
    "lat": 17.2473,
    "lng": 80.1514,
    "state": "Andhra Pradesh"
  },
  {
    "city": "Bhiwani",
    "lat": 28.78,
    "lng": 76.13,
    "state": "Haryana"
  },
  {
    "city": "Shrirampur",
    "lat": 22.75,
    "lng": 88.34,
    "state": "West Bengal"
  },
  {
    "city": "Ghandinagar",
    "lat": 23.223,
    "lng": 72.65,
    "state": "Gujarat"
  },
  {
    "city": "Baharampur",
    "lat": 24.1,
    "lng": 88.25,
    "state": "West Bengal"
  },
  {
    "city": "Hugli",
    "lat": 22.9089,
    "lng": 88.3967,
    "state": "West Bengal"
  },
  {
    "city": "Morbi",
    "lat": 22.82,
    "lng": 70.83,
    "state": "Gujarat"
  },
  {
    "city": "Mahbubnagar",
    "lat": 16.7488,
    "lng": 78.0035,
    "state": "Andhra Pradesh"
  },
  {
    "city": "Fatehpur",
    "lat": 25.93,
    "lng": 80.8,
    "state": "Uttar Pradesh"
  },
  {
    "city": "Pandhurna",
    "lat": 21.6,
    "lng": 78.52,
    "state": "Madhya Pradesh"
  },
  {
    "city": "Rajendranagar",
    "lat": 17.3198,
    "lng": 78.4031,
    "state": "Andhra Pradesh"
  },
  {
    "city": "Rae Bareli",
    "lat": 26.2236,
    "lng": 81.2403,
    "state": "Uttar Pradesh"
  },
  {
    "city": "Orai",
    "lat": 25.98,
    "lng": 79.47,
    "state": "Uttar Pradesh"
  },
  {
    "city": "Raiganj",
    "lat": 25.62,
    "lng": 88.12,
    "state": "West Bengal"
  },
  {
    "city": "Bhusaval",
    "lat": 21.05,
    "lng": 75.77,
    "state": "Maharashtra"
  },
  {
    "city": "Barakpur",
    "lat": 22.7642,
    "lng": 88.3776,
    "state": "West Bengal"
  },
  {
    "city": "Bahraigh",
    "lat": 27.575,
    "lng": 81.594,
    "state": "Uttar Pradesh"
  },
  {
    "city": "Tambaram",
    "lat": 12.831,
    "lng": 80.0459,
    "state": "Tamil Nadu"
  },
  {
    "city": "Umreth",
    "lat": 22.6986,
    "lng": 73.1156,
    "state": "Gujarat"
  },
  {
    "city": "Mahesana",
    "lat": 23.6,
    "lng": 72.4,
    "state": "Gujarat"
  },
  {
    "city": "Dinapore",
    "lat": 25.6225,
    "lng": 85.0417,
    "state": "Bihar"
  },
  {
    "city": "Alasandigutta",
    "lat": 15.63,
    "lng": 77.28,
    "state": "Andhra Pradesh"
  },
  {
    "city": "Batala",
    "lat": 31.8186,
    "lng": 75.2028,
    "state": "Punjab"
  },
  {
    "city": "Kottayam",
    "lat": 9.5947,
    "lng": 76.4856,
    "state": "Kerala"
  },
  {
    "city": "Sirsa",
    "lat": 29.5333,
    "lng": 75.0167,
    "state": "Haryana"
  },
  {
    "city": "Karaikkudi",
    "lat": 10.0735,
    "lng": 78.7732,
    "state": "Tamil Nadu"
  },
  {
    "city": "Himatnagar",
    "lat": 23.6,
    "lng": 72.95,
    "state": "Gujarat"
  },
  {
    "city": "Alleppey",
    "lat": 9.49,
    "lng": 76.33,
    "state": "Kerala"
  },
  {
    "city": "Dam Dam",
    "lat": 22.62,
    "lng": 88.42,
    "state": "West Bengal"
  },
  {
    "city": "Jaunpur",
    "lat": 25.73,
    "lng": 82.68,
    "state": "Uttar Pradesh"
  },
  {
    "city": "Guna",
    "lat": 24.65,
    "lng": 77.32,
    "state": "Madhya Pradesh"
  },
  {
    "city": "Madanapalle",
    "lat": 13.55,
    "lng": 78.5,
    "state": "Andhra Pradesh"
  },
  {
    "city": "Mahad",
    "lat": 18.083,
    "lng": 73.417,
    "state": "Maharashtra"
  },
  {
    "city": "Shivpuri",
    "lat": 25.43,
    "lng": 77.65,
    "state": "Madhya Pradesh"
  },
  {
    "city": "Bhalswa Jahangirpur",
    "lat": 28.7354,
    "lng": 77.1638,
    "state": "Delhi"
  },
  {
    "city": "Sultanpur Mazra",
    "lat": 28.6981,
    "lng": 77.0689,
    "state": "Delhi"
  },
  {
    "city": "Unnao",
    "lat": 26.55,
    "lng": 80.49,
    "state": "Uttar Pradesh"
  },
  {
    "city": "Titagarh",
    "lat": 22.74,
    "lng": 88.37,
    "state": "West Bengal"
  },
  {
    "city": "Waraseoni",
    "lat": 21.7647,
    "lng": 80.0494,
    "state": "Madhya Pradesh"
  },
  {
    "city": "Mauli",
    "lat": 30.699,
    "lng": 76.693,
    "state": "Punjab"
  },
  {
    "city": "Chandannagar",
    "lat": 22.8671,
    "lng": 88.3674,
    "state": "West Bengal"
  },
  {
    "city": "Cuddalore",
    "lat": 11.75,
    "lng": 79.75,
    "state": "Tamil Nadu"
  },
  {
    "city": "Kotdwara",
    "lat": 29.75,
    "lng": 78.53,
    "state": "Uttarakhand"
  },
  {
    "city": "Chirala",
    "lat": 15.8246,
    "lng": 80.3521,
    "state": "Andhra Pradesh"
  },
  {
    "city": "Deo",
    "lat": 24.6561,
    "lng": 84.4356,
    "state": "Bihar"
  },
  {
    "city": "Silchar",
    "lat": 24.82,
    "lng": 92.8,
    "state": "Assam"
  },
  {
    "city": "Gadag",
    "lat": 15.4167,
    "lng": 75.6167,
    "state": "Karnataka"
  },
  {
    "city": "Tiruvannamalai",
    "lat": 12.13,
    "lng": 79.07,
    "state": "Tamil Nadu"
  },
  {
    "city": "Bidar",
    "lat": 17.912,
    "lng": 77.52,
    "state": "Karnataka"
  },
  {
    "city": "Valsad",
    "lat": 20.61,
    "lng": 72.926,
    "state": "Gujarat"
  },
  {
    "city": "Machilipatnam",
    "lat": 16.17,
    "lng": 81.13,
    "state": "Andhra Pradesh"
  },
  {
    "city": "Medinipur",
    "lat": 22.424,
    "lng": 87.319,
    "state": "West Bengal"
  },
  {
    "city": "Damoh",
    "lat": 23.8331,
    "lng": 79.4419,
    "state": "Madhya Pradesh"
  },
  {
    "city": "Neyveli",
    "lat": 11.6088,
    "lng": 79.4994,
    "state": "Tamil Nadu"
  },
  {
    "city": "Baramula",
    "lat": 34.2,
    "lng": 74.34,
    "state": "Jammu and Kashmīr"
  },
  {
    "city": "Wapi",
    "lat": 20.372,
    "lng": 72.917,
    "state": "Gujarat"
  },
  {
    "city": "Jind",
    "lat": 29.3167,
    "lng": 76.3167,
    "state": "Haryana"
  },
  {
    "city": "Adoni",
    "lat": 15.6244,
    "lng": 77.2731,
    "state": "Andhra Pradesh"
  },
  {
    "city": "Tenali",
    "lat": 16.239,
    "lng": 80.645,
    "state": "Andhra Pradesh"
  },
  {
    "city": "Fyzabad",
    "lat": 26.773,
    "lng": 82.146,
    "state": "Uttar Pradesh"
  },
  {
    "city": "Udipi",
    "lat": 13.3389,
    "lng": 74.7451,
    "state": "Karnataka"
  },
  {
    "city": "Conjeeveram",
    "lat": 12.8308,
    "lng": 79.7078,
    "state": "Tamil Nadu"
  },
  {
    "city": "Proddatur",
    "lat": 14.73,
    "lng": 78.55,
    "state": "Andhra Pradesh"
  },
  {
    "city": "Nangloi Jat",
    "lat": 28.6833,
    "lng": 77.0667,
    "state": "Delhi"
  },
  {
    "city": "Godhra",
    "lat": 22.7772,
    "lng": 73.6203,
    "state": "Gujarat"
  },
  {
    "city": "Chitaldrug",
    "lat": 14.2333,
    "lng": 76.4,
    "state": "Karnataka"
  },
  {
    "city": "Rajapalaiyam",
    "lat": 9.4204,
    "lng": 77.58,
    "state": "Tamil Nadu"
  },
  {
    "city": "Multai",
    "lat": 21.77,
    "lng": 78.25,
    "state": "Madhya Pradesh"
  },
  {
    "city": "Chittoor",
    "lat": 13.216,
    "lng": 79.098,
    "state": "Andhra Pradesh"
  },
  {
    "city": "Krishnanagar",
    "lat": 23.4,
    "lng": 88.5,
    "state": "West Bengal"
  },
  {
    "city": "Uttarpara",
    "lat": 22.67,
    "lng": 88.35,
    "state": "West Bengal"
  },
  {
    "city": "Moga",
    "lat": 30.822,
    "lng": 75.174,
    "state": "Punjab"
  },
  {
    "city": "Budaun",
    "lat": 28.05,
    "lng": 79.12,
    "state": "Uttar Pradesh"
  },
  {
    "city": "Bharuch",
    "lat": 21.6948,
    "lng": 72.9805,
    "state": "Gujarat"
  },
  {
    "city": "Saharsa",
    "lat": 25.88,
    "lng": 86.6,
    "state": "Bihar"
  },
  {
    "city": "Pathankot",
    "lat": 32.2668,
    "lng": 75.6,
    "state": "Punjab"
  },
  {
    "city": "Vidisha",
    "lat": 23.5239,
    "lng": 77.8061,
    "state": "Madhya Pradesh"
  },
  {
    "city": "Nalgonda",
    "lat": 17.05,
    "lng": 79.27,
    "state": "Andhra Pradesh"
  },
  {
    "city": "Rudarpur",
    "lat": 28.9708,
    "lng": 79.3972,
    "state": "Uttarakhand"
  },
  {
    "city": "Thanesar",
    "lat": 29.9667,
    "lng": 76.8167,
    "state": "Haryana"
  },
  {
    "city": "Jorhat",
    "lat": 26.75,
    "lng": 94.22,
    "state": "Assam"
  },
  {
    "city": "Hajipur",
    "lat": 25.6925,
    "lng": 85.2084,
    "state": "Bihar"
  },
  {
    "city": "Balurghat",
    "lat": 25.22,
    "lng": 88.76,
    "state": "West Bengal"
  },
  {
    "city": "Dibrugarh",
    "lat": 27.48,
    "lng": 95,
    "state": "Assam"
  },
  {
    "city": "Veraval",
    "lat": 20.9,
    "lng": 70.37,
    "state": "Gujarat"
  },
  {
    "city": "Shantipur",
    "lat": 23.25,
    "lng": 88.43,
    "state": "West Bengal"
  },
  {
    "city": "Hindupur",
    "lat": 13.83,
    "lng": 77.49,
    "state": "Andhra Pradesh"
  },
  {
    "city": "Erode",
    "lat": 11.3409,
    "lng": 77.7171,
    "state": "Tamil Nadu"
  },
  {
    "city": "Beawar",
    "lat": 26.1011,
    "lng": 74.3203,
    "state": "Rajasthan"
  },
  {
    "city": "Kolar",
    "lat": 13.1333,
    "lng": 78.1333,
    "state": "Karnataka"
  },
  {
    "city": "Soro",
    "lat": 21.29,
    "lng": 86.69,
    "state": "Odisha"
  },
  {
    "city": "Sitarganj",
    "lat": 28.93,
    "lng": 79.7,
    "state": "Uttarakhand"
  },
  {
    "city": "Habra",
    "lat": 22.83,
    "lng": 88.63,
    "state": "West Bengal"
  },
  {
    "city": "Nowgong",
    "lat": 26.3492,
    "lng": 92.6861,
    "state": "Assam"
  },
  {
    "city": "Bir",
    "lat": 18.9833,
    "lng": 75.7667,
    "state": "Maharashtra"
  },
  {
    "city": "Etah",
    "lat": 27.63,
    "lng": 78.67,
    "state": "Uttar Pradesh"
  },
  {
    "city": "Narnaul",
    "lat": 28.0444,
    "lng": 76.1056,
    "state": "Haryana"
  },
  {
    "city": "Abohar",
    "lat": 30.1334,
    "lng": 74.2001,
    "state": "Punjab"
  },
  {
    "city": "Kaithal",
    "lat": 29.8015,
    "lng": 76.3998,
    "state": "Haryana"
  },
  {
    "city": "Shillong",
    "lat": 25.5744,
    "lng": 91.8789,
    "state": "Meghalaya"
  },
  {
    "city": "Chhatarpur",
    "lat": 24.9177,
    "lng": 79.5887,
    "state": "Madhya Pradesh"
  },
  {
    "city": "Koiridih",
    "lat": 24.18,
    "lng": 86.3,
    "state": "Jharkhand"
  },
  {
    "city": "Rewari",
    "lat": 28.18,
    "lng": 76.62,
    "state": "Haryana"
  },
  {
    "city": "Kumbakonam",
    "lat": 10.9602,
    "lng": 79.3845,
    "state": "Tamil Nadu"
  },
  {
    "city": "Bhimavaram",
    "lat": 16.543,
    "lng": 81.523,
    "state": "Andhra Pradesh"
  },
  {
    "city": "Dehri",
    "lat": 24.91,
    "lng": 84.18,
    "state": "Bihar"
  },
  {
    "city": "Mandsaur",
    "lat": 24.03,
    "lng": 75.08,
    "state": "Madhya Pradesh"
  },
  {
    "city": "Chicacole",
    "lat": 18.3,
    "lng": 83.9,
    "state": "Andhra Pradesh"
  },
  {
    "city": "Mandya",
    "lat": 12.5242,
    "lng": 76.8958,
    "state": "Karnataka"
  },
  {
    "city": "Bankura",
    "lat": 23.25,
    "lng": 87.0667,
    "state": "West Bengal"
  },
  {
    "city": "Siwan",
    "lat": 26.22,
    "lng": 84.36,
    "state": "Bihar"
  },
  {
    "city": "Khargone",
    "lat": 21.8229,
    "lng": 75.6139,
    "state": "Madhya Pradesh"
  },
  {
    "city": "Raigarh",
    "lat": 21.8,
    "lng": 83.3,
    "state": "Chhattīsgarh"
  },
  {
    "city": "Yelahanka",
    "lat": 13.1007,
    "lng": 77.5963,
    "state": "Karnataka"
  },
  {
    "city": "Chikmagalur",
    "lat": 13.3167,
    "lng": 75.7833,
    "state": "Karnataka"
  },
  {
    "city": "Gondia",
    "lat": 21.45,
    "lng": 80.2,
    "state": "Maharashtra"
  },
  {
    "city": "Hassan",
    "lat": 13.005,
    "lng": 76.1028,
    "state": "Karnataka"
  },
  {
    "city": "Palwal",
    "lat": 28.143,
    "lng": 77.329,
    "state": "Haryana"
  },
  {
    "city": "Palghat",
    "lat": 10.7792,
    "lng": 76.6547,
    "state": "Kerala"
  },
  {
    "city": "Chittandikavundanur",
    "lat": 10.6931,
    "lng": 76.7188,
    "state": "Tamil Nadu"
  },
  {
    "city": "Kanchrapara",
    "lat": 22.9456,
    "lng": 88.4332,
    "state": "West Bengal"
  },
  {
    "city": "Chas",
    "lat": 23.63,
    "lng": 86.17,
    "state": "Jharkhand"
  },
  {
    "city": "Bongaigaon",
    "lat": 26.4769,
    "lng": 90.5583,
    "state": "Assam"
  },
  {
    "city": "Mukerian",
    "lat": 31.95,
    "lng": 75.62,
    "state": "Punjab"
  },
  {
    "city": "Hanumangarh",
    "lat": 29.5833,
    "lng": 74.3167,
    "state": "Rajasthan"
  },
  {
    "city": "Mothihari",
    "lat": 26.65,
    "lng": 84.9167,
    "state": "Bihar"
  },
  {
    "city": "Alwal",
    "lat": 17.5047,
    "lng": 78.5038,
    "state": "Andhra Pradesh"
  },
  {
    "city": "Hoshangabad",
    "lat": 22.7475,
    "lng": 77.7274,
    "state": "Madhya Pradesh"
  },
  {
    "city": "Khanna",
    "lat": 30.7,
    "lng": 76.22,
    "state": "Punjab"
  },
  {
    "city": "Nagda",
    "lat": 23.4564,
    "lng": 75.4131,
    "state": "Madhya Pradesh"
  },
  {
    "city": "Jharsugra",
    "lat": 21.85,
    "lng": 84.03,
    "state": "Odisha"
  },
  {
    "city": "Palni",
    "lat": 10.45,
    "lng": 77.5161,
    "state": "Tamil Nadu"
  },
  {
    "city": "Basirhat",
    "lat": 22.6612,
    "lng": 88.866,
    "state": "West Bengal"
  },
  {
    "city": "Navadwip",
    "lat": 23.4088,
    "lng": 88.3657,
    "state": "West Bengal"
  },
  {
    "city": "Guntakal",
    "lat": 15.17,
    "lng": 77.38,
    "state": "Andhra Pradesh"
  },
  {
    "city": "Pithampur",
    "lat": 22.6197,
    "lng": 75.6933,
    "state": "Madhya Pradesh"
  },
  {
    "city": "Halisahar",
    "lat": 22.95,
    "lng": 88.42,
    "state": "West Bengal"
  },
  {
    "city": "Rishra",
    "lat": 22.71,
    "lng": 88.35,
    "state": "West Bengal"
  },
  {
    "city": "Patan",
    "lat": 23.85,
    "lng": 72.1167,
    "state": "Gujarat"
  },
  {
    "city": "Sunam",
    "lat": 30.13,
    "lng": 75.8,
    "state": "Punjab"
  },
  {
    "city": "Pali",
    "lat": 23.35,
    "lng": 81.05,
    "state": "Madhya Pradesh"
  },
  {
    "city": "Nandgaon",
    "lat": 20.307,
    "lng": 74.657,
    "state": "Maharashtra"
  },
  {
    "city": "Bhadrakh",
    "lat": 21.0545,
    "lng": 86.5156,
    "state": "Odisha"
  },
  {
    "city": "Dimapur",
    "lat": 25.92,
    "lng": 93.73,
    "state": "Assam"
  },
  {
    "city": "Baidyabati",
    "lat": 22.79,
    "lng": 88.32,
    "state": "West Bengal"
  },
  {
    "city": "Dharmavaram",
    "lat": 14.43,
    "lng": 77.72,
    "state": "Andhra Pradesh"
  },
  {
    "city": "Ghazipur",
    "lat": 25.5833,
    "lng": 83.5667,
    "state": "Uttar Pradesh"
  },
  {
    "city": "Puruliya",
    "lat": 23.3333,
    "lng": 86.3667,
    "state": "West Bengal"
  },
  {
    "city": "Gudiyattam",
    "lat": 12.9476,
    "lng": 78.87,
    "state": "Tamil Nadu"
  },
  {
    "city": "Bagaha",
    "lat": 27.0992,
    "lng": 84.09,
    "state": "Bihar"
  },
  {
    "city": "Gurdaspur",
    "lat": 32.0333,
    "lng": 75.4,
    "state": "Punjab"
  },
  {
    "city": "Satara",
    "lat": 17.6833,
    "lng": 73.9833,
    "state": "Maharashtra"
  },
  {
    "city": "Darjeeling",
    "lat": 27.0375,
    "lng": 88.2631,
    "state": "West Bengal"
  },
  {
    "city": "Bagalkot",
    "lat": 16.1833,
    "lng": 75.7,
    "state": "Karnataka"
  },
  {
    "city": "Nokha",
    "lat": 27.6,
    "lng": 73.42,
    "state": "Rajasthan"
  },
  {
    "city": "Gudivada",
    "lat": 16.43,
    "lng": 80.99,
    "state": "Andhra Pradesh"
  },
  {
    "city": "Sopur",
    "lat": 34.3,
    "lng": 74.47,
    "state": "Jammu and Kashmīr"
  },
  {
    "city": "Phagwara",
    "lat": 31.22,
    "lng": 75.77,
    "state": "Punjab"
  },
  {
    "city": "Pudukkottai",
    "lat": 10.3833,
    "lng": 78.8001,
    "state": "Tamil Nadu"
  },
  {
    "city": "Adilabad",
    "lat": 19.6667,
    "lng": 78.5333,
    "state": "Andhra Pradesh"
  },
  {
    "city": "Narasaraopet",
    "lat": 16.25,
    "lng": 80.07,
    "state": "Andhra Pradesh"
  },
  {
    "city": "Pollachi",
    "lat": 10.659,
    "lng": 77.008,
    "state": "Tamil Nadu"
  },
  {
    "city": "Barnala",
    "lat": 30.37,
    "lng": 75.54,
    "state": "Punjab"
  },
  {
    "city": "Yavatmal",
    "lat": 20.4,
    "lng": 78.1333,
    "state": "Maharashtra"
  },
  {
    "city": "Chittaurgarh",
    "lat": 24.8894,
    "lng": 74.6239,
    "state": "Rajasthan"
  },
  {
    "city": "Kovilpatti",
    "lat": 9.1744,
    "lng": 77.8688,
    "state": "Tamil Nadu"
  },
  {
    "city": "Bansbaria",
    "lat": 22.97,
    "lng": 88.4,
    "state": "West Bengal"
  },
  {
    "city": "Kaikkudi",
    "lat": 9.893,
    "lng": 78.7313,
    "state": "Tamil Nadu"
  },
  {
    "city": "Osmanabad",
    "lat": 18.1667,
    "lng": 76.05,
    "state": "Maharashtra"
  },
  {
    "city": "Sahibganj",
    "lat": 25.25,
    "lng": 87.65,
    "state": "Jharkhand"
  },
  {
    "city": "Balangir",
    "lat": 20.72,
    "lng": 83.48,
    "state": "Odisha"
  },
  {
    "city": "Rajpura",
    "lat": 30.484,
    "lng": 76.594,
    "state": "Punjab"
  },
  {
    "city": "Madhavaram",
    "lat": 13.1482,
    "lng": 80.2314,
    "state": "Tamil Nadu"
  },
  {
    "city": "Champdani",
    "lat": 22.8,
    "lng": 88.37,
    "state": "West Bengal"
  },
  {
    "city": "Mahasamund",
    "lat": 21.11,
    "lng": 82.1,
    "state": "Chhattīsgarh"
  },
  {
    "city": "Shujalpur",
    "lat": 23.4,
    "lng": 76.72,
    "state": "Madhya Pradesh"
  },
  {
    "city": "Khardah",
    "lat": 22.72,
    "lng": 88.38,
    "state": "West Bengal"
  },
  {
    "city": "Nawada",
    "lat": 24.88,
    "lng": 85.53,
    "state": "Bihar"
  },
  {
    "city": "Muktsar",
    "lat": 30.4743,
    "lng": 74.5166,
    "state": "Punjab"
  },
  {
    "city": "Betul Bazar",
    "lat": 21.92,
    "lng": 77.9,
    "state": "Madhya Pradesh"
  },
  {
    "city": "Ferozepore",
    "lat": 30.9166,
    "lng": 74.6,
    "state": "Punjab"
  },
  {
    "city": "Bangaon",
    "lat": 23.0435,
    "lng": 88.8318,
    "state": "West Bengal"
  },
  {
    "city": "Datia",
    "lat": 25.67,
    "lng": 78.47,
    "state": "Madhya Pradesh"
  },
  {
    "city": "Sehore",
    "lat": 23.2,
    "lng": 77.08,
    "state": "Madhya Pradesh"
  },
  {
    "city": "Sitamarhi",
    "lat": 26.6,
    "lng": 85.48,
    "state": "Bihar"
  },
  {
    "city": "Mungeli",
    "lat": 22.07,
    "lng": 81.68,
    "state": "Chhattīsgarh"
  },
  {
    "city": "Tadpatri",
    "lat": 14.92,
    "lng": 78.02,
    "state": "Andhra Pradesh"
  },
  {
    "city": "Islamabad",
    "lat": 33.73,
    "lng": 75.15,
    "state": "Jammu and Kashmīr"
  },
  {
    "city": "Jalpaiguri",
    "lat": 26.5167,
    "lng": 88.7333,
    "state": "West Bengal"
  },
  {
    "city": "Gharbara",
    "lat": 28.4962,
    "lng": 77.536,
    "state": "Uttar Pradesh"
  },
  {
    "city": "Shamli",
    "lat": 29.45,
    "lng": 77.32,
    "state": "Uttar Pradesh"
  },
  {
    "city": "Suriapet",
    "lat": 17.1415,
    "lng": 79.6236,
    "state": "Andhra Pradesh"
  },
  {
    "city": "Shikohabad",
    "lat": 27.1,
    "lng": 78.6,
    "state": "Uttar Pradesh"
  },
  {
    "city": "Kishanganj",
    "lat": 26.0794,
    "lng": 87.9372,
    "state": "Bihar"
  },
  {
    "city": "Ranibennur",
    "lat": 14.6167,
    "lng": 75.6167,
    "state": "Karnataka"
  },
  {
    "city": "Jamalpur",
    "lat": 25.3,
    "lng": 86.5,
    "state": "Bihar"
  },
  {
    "city": "Nautanwa",
    "lat": 27.43,
    "lng": 83.42,
    "state": "Uttar Pradesh"
  },
  {
    "city": "Gangawati",
    "lat": 15.43,
    "lng": 76.53,
    "state": "Karnataka"
  },
  {
    "city": "Ballia",
    "lat": 25.7604,
    "lng": 84.1471,
    "state": "Uttar Pradesh"
  },
  {
    "city": "Mirialguda",
    "lat": 16.8667,
    "lng": 79.5833,
    "state": "Andhra Pradesh"
  },
  {
    "city": "Makrana",
    "lat": 27.05,
    "lng": 74.72,
    "state": "Rajasthan"
  },
  {
    "city": "Sheopur",
    "lat": 25.67,
    "lng": 76.7,
    "state": "Madhya Pradesh"
  },
  {
    "city": "Tezpur",
    "lat": 26.63,
    "lng": 92.8,
    "state": "Assam"
  },
  {
    "city": "Kurichchi",
    "lat": 10.9609,
    "lng": 76.9738,
    "state": "Tamil Nadu"
  },
  {
    "city": "Tadepallegudem",
    "lat": 16.815,
    "lng": 81.526,
    "state": "Andhra Pradesh"
  },
  {
    "city": "Brajarajnagar",
    "lat": 21.8167,
    "lng": 83.9167,
    "state": "Odisha"
  },
  {
    "city": "Kalyani",
    "lat": 22.975,
    "lng": 88.4344,
    "state": "West Bengal"
  },
  {
    "city": "Negapatam",
    "lat": 10.7667,
    "lng": 79.8333,
    "state": "Tamil Nadu"
  },
  {
    "city": "Buxar",
    "lat": 25.5605,
    "lng": 83.9805,
    "state": "Bihar"
  },
  {
    "city": "Bundi",
    "lat": 25.4383,
    "lng": 75.6372,
    "state": "Rajasthan"
  },
  {
    "city": "Amaravati",
    "lat": 16.5131,
    "lng": 80.5165,
    "state": "Andhra Pradesh"
  },
  {
    "city": "Rishikesh",
    "lat": 30.1083,
    "lng": 78.2972,
    "state": "Uttarakhand"
  },
  {
    "city": "Bhadreswar",
    "lat": 22.82,
    "lng": 88.35,
    "state": "West Bengal"
  },
  {
    "city": "Sundarnagar",
    "lat": 31.53,
    "lng": 76.88,
    "state": "Himachal Pradesh"
  },
  {
    "city": "Seoni",
    "lat": 22.08,
    "lng": 79.53,
    "state": "Madhya Pradesh"
  },
  {
    "city": "Kapurthala",
    "lat": 31.38,
    "lng": 75.38,
    "state": "Punjab"
  },
  {
    "city": "Aurangabad",
    "lat": 24.7,
    "lng": 84.35,
    "state": "Bihar"
  },
  {
    "city": "Chilakalurupet",
    "lat": 16.0892,
    "lng": 80.1672,
    "state": "Andhra Pradesh"
  },
  {
    "city": "Vasco Da Gama",
    "lat": 15.3981,
    "lng": 73.8111,
    "state": "Goa"
  },
  {
    "city": "Dhamtari",
    "lat": 20.71,
    "lng": 81.55,
    "state": "Chhattīsgarh"
  },
  {
    "city": "Sujangarh",
    "lat": 27.7,
    "lng": 74.47,
    "state": "Rajasthan"
  },
  {
    "city": "Jeypore",
    "lat": 18.8563,
    "lng": 82.5716,
    "state": "Odisha"
  },
  {
    "city": "Port Blair",
    "lat": 11.6683,
    "lng": 92.7378,
    "state": "Andaman and Nicobar Islands"
  },
  {
    "city": "Chanwari",
    "lat": 23.2,
    "lng": 82.35,
    "state": "Madhya Pradesh"
  },
  {
    "city": "Gangtok",
    "lat": 27.33,
    "lng": 88.62,
    "state": "Sikkim"
  },
  {
    "city": "Dhulian",
    "lat": 24.68,
    "lng": 87.97,
    "state": "West Bengal"
  },
  {
    "city": "Kohima",
    "lat": 25.67,
    "lng": 94.1,
    "state": "Nagaland"
  },
  {
    "city": "Marmagao",
    "lat": 15.402,
    "lng": 73.8,
    "state": "Goa"
  },
  {
    "city": "Tripunittura",
    "lat": 9.9528,
    "lng": 76.3387,
    "state": "Kerala"
  },
  {
    "city": "Jangipur",
    "lat": 24.47,
    "lng": 88.07,
    "state": "West Bengal"
  },
  {
    "city": "Perintalmanna",
    "lat": 10.9765,
    "lng": 76.2269,
    "state": "Kerala"
  },
  {
    "city": "Chinnachauku",
    "lat": 14.4732,
    "lng": 78.8451,
    "state": "Andhra Pradesh"
  },
  {
    "city": "Ponnani",
    "lat": 10.77,
    "lng": 75.9,
    "state": "Kerala"
  },
  {
    "city": "Baj Baj",
    "lat": 22.4828,
    "lng": 88.1818,
    "state": "West Bengal"
  },
  {
    "city": "Tanuku",
    "lat": 16.75,
    "lng": 81.7,
    "state": "Andhra Pradesh"
  },
  {
    "city": "Araria",
    "lat": 26.15,
    "lng": 87.52,
    "state": "Bihar"
  },
  {
    "city": "Kuniyamuttur",
    "lat": 10.9638,
    "lng": 76.9525,
    "state": "Tamil Nadu"
  },
  {
    "city": "Madhubani",
    "lat": 26.37,
    "lng": 86.08,
    "state": "Bihar"
  },
  {
    "city": "Malappuram",
    "lat": 11.0588,
    "lng": 76.0693,
    "state": "Kerala"
  },
  {
    "city": "Nerkunram",
    "lat": 13.0667,
    "lng": 80.2833,
    "state": "Tamil Nadu"
  },
  {
    "city": "Avaniyapuram",
    "lat": 9.8818,
    "lng": 78.1125,
    "state": "Tamil Nadu"
  },
  {
    "city": "Siuri",
    "lat": 23.91,
    "lng": 87.527,
    "state": "West Bengal"
  },
  {
    "city": "Kodungallur",
    "lat": 10.2338,
    "lng": 76.1946,
    "state": "Kerala"
  },
  {
    "city": "Gaura",
    "lat": 25.4961,
    "lng": 85.9709,
    "state": "Bihar"
  },
  {
    "city": "Neyyattinkara",
    "lat": 8.4,
    "lng": 77.08,
    "state": "Kerala"
  },
  {
    "city": "Varisshiyakuni",
    "lat": 11.64,
    "lng": 75.587,
    "state": "Kerala"
  },
  {
    "city": "Tamluk",
    "lat": 22.3,
    "lng": 87.92,
    "state": "West Bengal"
  },
  {
    "city": "Kayankulam",
    "lat": 9.172,
    "lng": 76.501,
    "state": "Kerala"
  },
  {
    "city": "Bankra",
    "lat": 22.63,
    "lng": 88.3,
    "state": "West Bengal"
  },
  {
    "city": "Khagaul",
    "lat": 25.579,
    "lng": 85.0456,
    "state": "Bihar"
  },
  {
    "city": "Sundapalaiyam",
    "lat": 11.0014,
    "lng": 76.8732,
    "state": "Tamil Nadu"
  },
  {
    "city": "Nagari",
    "lat": 13.3214,
    "lng": 79.5856,
    "state": "Andhra Pradesh"
  },
  {
    "city": "Maduraivayal",
    "lat": 13.0631,
    "lng": 80.1719,
    "state": "Tamil Nadu"
  },
  {
    "city": "Tirur",
    "lat": 10.9,
    "lng": 75.92,
    "state": "Kerala"
  },
  {
    "city": "Poonamallee",
    "lat": 13.0465,
    "lng": 80.11,
    "state": "Tamil Nadu"
  },
  {
    "city": "Chakapara",
    "lat": 22.63,
    "lng": 88.35,
    "state": "West Bengal"
  },
  {
    "city": "Itanagar",
    "lat": 27.1,
    "lng": 93.62,
    "state": "Arunachal Pradesh"
  },
  {
    "city": "Karimganj",
    "lat": 24.87,
    "lng": 92.35,
    "state": "Assam"
  },
  {
    "city": "Mundka",
    "lat": 28.6794,
    "lng": 77.0284,
    "state": "Delhi"
  },
  {
    "city": "Baruipur",
    "lat": 22.3654,
    "lng": 88.4325,
    "state": "West Bengal"
  },
  {
    "city": "Mandapeta",
    "lat": 16.87,
    "lng": 81.93,
    "state": "Andhra Pradesh"
  },
  {
    "city": "Bhimunipatnam",
    "lat": 17.8846,
    "lng": 83.4393,
    "state": "Andhra Pradesh"
  },
  {
    "city": "Pithapuram",
    "lat": 17.1167,
    "lng": 82.2667,
    "state": "Andhra Pradesh"
  },
  {
    "city": "Tirupparangunram",
    "lat": 9.8815,
    "lng": 78.0731,
    "state": "Tamil Nadu"
  },
  {
    "city": "Madhipura",
    "lat": 25.92,
    "lng": 86.792,
    "state": "Bihar"
  },
  {
    "city": "Amalapuram",
    "lat": 16.5787,
    "lng": 82.0061,
    "state": "Andhra Pradesh"
  },
  {
    "city": "Badurpalle",
    "lat": 17.5468,
    "lng": 78.365,
    "state": "Andhra Pradesh"
  },
  {
    "city": "Arwal",
    "lat": 25.25,
    "lng": 84.68,
    "state": "Bihar"
  },
  {
    "city": "Kunnamkulam",
    "lat": 10.65,
    "lng": 76.08,
    "state": "Kerala"
  },
  {
    "city": "Kendraparha",
    "lat": 20.5,
    "lng": 86.42,
    "state": "Odisha"
  },
  {
    "city": "Changanacheri",
    "lat": 9.4667,
    "lng": 76.55,
    "state": "Kerala"
  },
  {
    "city": "Bodupal",
    "lat": 17.4139,
    "lng": 78.5783,
    "state": "Andhra Pradesh"
  },
  {
    "city": "Pakaur",
    "lat": 24.63,
    "lng": 87.85,
    "state": "Jharkhand"
  },
  {
    "city": "Manali",
    "lat": 13.1667,
    "lng": 80.2667,
    "state": "Tamil Nadu"
  },
  {
    "city": "Bihat",
    "lat": 25.4253,
    "lng": 86.0208,
    "state": "Bihar"
  },
  {
    "city": "Nellikkuppam",
    "lat": 11.7667,
    "lng": 79.6833,
    "state": "Tamil Nadu"
  },
  {
    "city": "Gobardanga",
    "lat": 22.87,
    "lng": 88.76,
    "state": "West Bengal"
  },
  {
    "city": "Shertallai",
    "lat": 9.6869,
    "lng": 76.3361,
    "state": "Kerala"
  },
  {
    "city": "Sijua",
    "lat": 23.7692,
    "lng": 86.1673,
    "state": "Jharkhand"
  },
  {
    "city": "Chalungalpadam",
    "lat": 9.6896,
    "lng": 76.3388,
    "state": "Kerala"
  },
  {
    "city": "Ramachandrapuram",
    "lat": 16.85,
    "lng": 82.02,
    "state": "Andhra Pradesh"
  },
  {
    "city": "Murshidabad",
    "lat": 24.18,
    "lng": 88.27,
    "state": "West Bengal"
  },
  {
    "city": "Diamond Harbour",
    "lat": 22.191,
    "lng": 88.1905,
    "state": "West Bengal"
  },
  {
    "city": "Dhaka",
    "lat": 26.72,
    "lng": 85.33,
    "state": "Bihar"
  },
  {
    "city": "Varkkallai",
    "lat": 8.734,
    "lng": 76.7256,
    "state": "Kerala"
  },
  {
    "city": "Bakhtiyarpur",
    "lat": 25.4667,
    "lng": 85.5167,
    "state": "Bihar"
  },
  {
    "city": "Tinnanur",
    "lat": 13.1145,
    "lng": 80.0271,
    "state": "Tamil Nadu"
  },
  {
    "city": "Palladam",
    "lat": 10.99,
    "lng": 77.2,
    "state": "Tamil Nadu"
  },
  {
    "city": "Guruvayur",
    "lat": 10.5947,
    "lng": 76.0403,
    "state": "Kerala"
  },
  {
    "city": "Sagauli",
    "lat": 26.7833,
    "lng": 84.7333,
    "state": "Bihar"
  },
  {
    "city": "Porur",
    "lat": 13.0356,
    "lng": 80.1582,
    "state": "Tamil Nadu"
  },
  {
    "city": "Phulwaria",
    "lat": 25.4697,
    "lng": 85.9847,
    "state": "Bihar"
  },
  {
    "city": "Melmadai",
    "lat": 9.9264,
    "lng": 78.1503,
    "state": "Tamil Nadu"
  },
  {
    "city": "Lalganj",
    "lat": 25.87,
    "lng": 85.18,
    "state": "Bihar"
  },
  {
    "city": "Madipakkam",
    "lat": 12.9623,
    "lng": 80.1986,
    "state": "Tamil Nadu"
  },
  {
    "city": "Amudalavalasa",
    "lat": 18.4167,
    "lng": 83.9,
    "state": "Andhra Pradesh"
  },
  {
    "city": "Tuvagudi",
    "lat": 10.7564,
    "lng": 78.8011,
    "state": "Tamil Nadu"
  },
  {
    "city": "Kankuria",
    "lat": 24.658,
    "lng": 87.9794,
    "state": "West Bengal"
  },
  {
    "city": "Pujali",
    "lat": 22.4679,
    "lng": 88.1452,
    "state": "West Bengal"
  },
  {
    "city": "Chittaranjan",
    "lat": 23.87,
    "lng": 86.87,
    "state": "West Bengal"
  },
  {
    "city": "Panaji",
    "lat": 15.4989,
    "lng": 73.8278,
    "state": "Goa"
  },
  {
    "city": "Nallur",
    "lat": 11.1003,
    "lng": 77.3914,
    "state": "Tamil Nadu"
  },
  {
    "city": "Paravurkambolam",
    "lat": 8.8168,
    "lng": 76.6719,
    "state": "Kerala"
  },
  {
    "city": "Paravur Tekkumbhagam",
    "lat": 8.811,
    "lng": 76.669,
    "state": "Kerala"
  },
  {
    "city": "Herohalli",
    "lat": 12.9911,
    "lng": 77.4873,
    "state": "Karnataka"
  },
  {
    "city": "Attingal",
    "lat": 8.68,
    "lng": 76.83,
    "state": "Kerala"
  },
  {
    "city": "Dighwara",
    "lat": 25.7443,
    "lng": 85.01,
    "state": "Bihar"
  },
  {
    "city": "Pandaul",
    "lat": 26.2517,
    "lng": 86.0747,
    "state": "Bihar"
  },
  {
    "city": "Pappinissheri",
    "lat": 11.95,
    "lng": 75.35,
    "state": "Kerala"
  },
  {
    "city": "Madukkarai",
    "lat": 10.9057,
    "lng": 76.9634,
    "state": "Tamil Nadu"
  },
  {
    "city": "Bibhutpur",
    "lat": 25.6878,
    "lng": 85.9992,
    "state": "Bihar"
  },
  {
    "city": "Pappakurichchi",
    "lat": 10.8137,
    "lng": 78.7481,
    "state": "Tamil Nadu"
  },
  {
    "city": "Pardiguda",
    "lat": 17.3974,
    "lng": 78.5783,
    "state": "Andhra Pradesh"
  },
  {
    "city": "Waris Aliganj",
    "lat": 25.01,
    "lng": 85.63,
    "state": "Bihar"
  },
  {
    "city": "Bangaon",
    "lat": 25.8673,
    "lng": 86.5115,
    "state": "Bihar"
  },
  {
    "city": "Chavakkad",
    "lat": 10.589,
    "lng": 76.0167,
    "state": "Kerala"
  },
  {
    "city": "Mangalam",
    "lat": 10.845,
    "lng": 75.919,
    "state": "Kerala"
  },
  {
    "city": "Turkauliya",
    "lat": 26.6079,
    "lng": 84.8296,
    "state": "Bihar"
  },
  {
    "city": "Kaippakancheri",
    "lat": 10.938,
    "lng": 75.987,
    "state": "Kerala"
  },
  {
    "city": "Sankrail",
    "lat": 22.57,
    "lng": 88.24,
    "state": "West Bengal"
  },
  {
    "city": "Kartarpur",
    "lat": 31.4427,
    "lng": 75.4985,
    "state": "Punjab"
  },
  {
    "city": "Pallijkarani",
    "lat": 12.9333,
    "lng": 80.2022,
    "state": "Tamil Nadu"
  },
  {
    "city": "Elesvaram",
    "lat": 17.2833,
    "lng": 82.1,
    "state": "Andhra Pradesh"
  },
  {
    "city": "Chamtha",
    "lat": 25.5789,
    "lng": 85.7734,
    "state": "Bihar"
  },
  {
    "city": "Singia",
    "lat": 25.8424,
    "lng": 86.1622,
    "state": "Bihar"
  },
  {
    "city": "Kararan",
    "lat": 30.772,
    "lng": 76.7959,
    "state": "Punjab"
  },
  {
    "city": "Vandiyur",
    "lat": 9.9092,
    "lng": 78.1609,
    "state": "Tamil Nadu"
  },
  {
    "city": "Nauagarhi",
    "lat": 25.3443,
    "lng": 86.5358,
    "state": "Bihar"
  },
  {
    "city": "Nagtala",
    "lat": 22.3693,
    "lng": 88.6071,
    "state": "West Bengal"
  },
  {
    "city": "Sursand",
    "lat": 26.65,
    "lng": 85.7167,
    "state": "Bihar"
  },
  {
    "city": "Tarakeswar",
    "lat": 22.89,
    "lng": 88.02,
    "state": "West Bengal"
  },
  {
    "city": "Vilangudi",
    "lat": 9.9458,
    "lng": 78.0935,
    "state": "Tamil Nadu"
  },
  {
    "city": "Narapalli",
    "lat": 17.4875,
    "lng": 78.6012,
    "state": "Andhra Pradesh"
  },
  {
    "city": "Nethirimangalam",
    "lat": 10.8,
    "lng": 76.14,
    "state": "Kerala"
  },
  {
    "city": "Sabalpur",
    "lat": 25.6053,
    "lng": 85.1835,
    "state": "Bihar"
  },
  {
    "city": "Marhaura",
    "lat": 25.97,
    "lng": 84.87,
    "state": "Bihar"
  },
  {
    "city": "Maranga",
    "lat": 25.7592,
    "lng": 87.4665,
    "state": "Bihar"
  },
  {
    "city": "Nibria",
    "lat": 22.61,
    "lng": 88.25,
    "state": "West Bengal"
  },
  {
    "city": "Kuli",
    "lat": 24.7366,
    "lng": 87.9426,
    "state": "West Bengal"
  },
  {
    "city": "Beldanga",
    "lat": 23.93,
    "lng": 88.25,
    "state": "West Bengal"
  },
  {
    "city": "Saranga",
    "lat": 22.54,
    "lng": 88.21,
    "state": "West Bengal"
  },
  {
    "city": "Naravarikuppam",
    "lat": 13.1913,
    "lng": 80.1847,
    "state": "Tamil Nadu"
  },
  {
    "city": "Mirganj",
    "lat": 26.3638,
    "lng": 84.364,
    "state": "Bihar"
  },
  {
    "city": "Virapandi",
    "lat": 11.0625,
    "lng": 77.3508,
    "state": "Tamil Nadu"
  },
  {
    "city": "Simri Bakhriarpur",
    "lat": 25.7216,
    "lng": 86.5937,
    "state": "Bihar"
  },
  {
    "city": "Nasriganj",
    "lat": 25.05,
    "lng": 84.3333,
    "state": "Bihar"
  },
  {
    "city": "Kantai",
    "lat": 26.2142,
    "lng": 85.2975,
    "state": "Bihar"
  },
  {
    "city": "Jaynagar-Majilpur",
    "lat": 22.1752,
    "lng": 88.4201,
    "state": "West Bengal"
  },
  {
    "city": "Perunkalattu",
    "lat": 12.9182,
    "lng": 80.0824,
    "state": "Tamil Nadu"
  },
  {
    "city": "Panchla",
    "lat": 22.54,
    "lng": 88.14,
    "state": "West Bengal"
  },
  {
    "city": "Dalsingh Sarai",
    "lat": 25.668,
    "lng": 85.8364,
    "state": "Bihar"
  },
  {
    "city": "Mamidalapadu",
    "lat": 15.831,
    "lng": 78.05,
    "state": "Andhra Pradesh"
  },
  {
    "city": "Punch",
    "lat": 33.7703,
    "lng": 74.0925,
    "state": "Jammu and Kashmīr"
  },
  {
    "city": "Nokha",
    "lat": 25.1015,
    "lng": 84.1228,
    "state": "Bihar"
  },
  {
    "city": "Ghataro Chaturbhuj",
    "lat": 25.8146,
    "lng": 85.1862,
    "state": "Bihar"
  },
  {
    "city": "Sograha",
    "lat": 25.4798,
    "lng": 85.9992,
    "state": "Bihar"
  },
  {
    "city": "Koelwar",
    "lat": 25.5805,
    "lng": 84.7975,
    "state": "Bihar"
  },
  {
    "city": "Baruni",
    "lat": 25.4751,
    "lng": 85.9681,
    "state": "Bihar"
  },
  {
    "city": "Jalhalli",
    "lat": 13.0333,
    "lng": 77.55,
    "state": "Karnataka"
  },
  {
    "city": "Salua",
    "lat": 22.61,
    "lng": 88.27,
    "state": "West Bengal"
  },
  {
    "city": "Mavelikara",
    "lat": 9.267,
    "lng": 76.55,
    "state": "Kerala"
  },
  {
    "city": "Shishgarh",
    "lat": 28.72,
    "lng": 79.32,
    "state": "Uttar Pradesh"
  },
  {
    "city": "Karunagapalli",
    "lat": 9.0544,
    "lng": 76.5353,
    "state": "Kerala"
  },
  {
    "city": "Vilachcheri",
    "lat": 9.8937,
    "lng": 78.0603,
    "state": "Tamil Nadu"
  },
  {
    "city": "Dharmapuram",
    "lat": 8.3839,
    "lng": 77.1284,
    "state": "Tamil Nadu"
  },
  {
    "city": "Sandi",
    "lat": 27.3,
    "lng": 79.95,
    "state": "Uttar Pradesh"
  },
  {
    "city": "Masrakh",
    "lat": 26.1054,
    "lng": 84.8026,
    "state": "Bihar"
  },
  {
    "city": "Simaria",
    "lat": 25.4221,
    "lng": 86.006,
    "state": "Bihar"
  },
  {
    "city": "Sahibpur Kamal",
    "lat": 25.4167,
    "lng": 86.3901,
    "state": "Bihar"
  },
  {
    "city": "Poranki",
    "lat": 16.4743,
    "lng": 80.7128,
    "state": "Andhra Pradesh"
  },
  {
    "city": "Panapur",
    "lat": 25.6729,
    "lng": 85.0715,
    "state": "Bihar"
  },
  {
    "city": "Maharajgani",
    "lat": 26.1075,
    "lng": 84.5025,
    "state": "Bihar"
  },
  {
    "city": "Alwaye",
    "lat": 10.1167,
    "lng": 76.35,
    "state": "Kerala"
  },
  {
    "city": "Garhara",
    "lat": 25.4407,
    "lng": 85.9983,
    "state": "Bihar"
  },
  {
    "city": "Simria",
    "lat": 25.9663,
    "lng": 85.8324,
    "state": "Bihar"
  },
  {
    "city": "Sirkhandi Bhitha",
    "lat": 26.6244,
    "lng": 85.7787,
    "state": "Bihar"
  },
  {
    "city": "Mairwa",
    "lat": 26.2322,
    "lng": 84.1635,
    "state": "Bihar"
  },
  {
    "city": "Sundararaopeta",
    "lat": 16.8031,
    "lng": 81.6419,
    "state": "Andhra Pradesh"
  },
  {
    "city": "Ukkayapalle",
    "lat": 14.4898,
    "lng": 78.8927,
    "state": "Andhra Pradesh"
  },
  {
    "city": "Mahadebnagar",
    "lat": 24.6896,
    "lng": 87.9384,
    "state": "West Bengal"
  },
  {
    "city": "Karian",
    "lat": 25.8594,
    "lng": 86.0104,
    "state": "Bihar"
  },
  {
    "city": "Singhara Buzurg",
    "lat": 25.7964,
    "lng": 85.4539,
    "state": "Bihar"
  },
  {
    "city": "Bagalur",
    "lat": 13.1328,
    "lng": 77.6685,
    "state": "Karnataka"
  },
  {
    "city": "Jethuli",
    "lat": 25.5378,
    "lng": 85.2841,
    "state": "Bihar"
  },
  {
    "city": "Dip",
    "lat": 26.2369,
    "lng": 86.3107,
    "state": "Bihar"
  },
  {
    "city": "Vellalur",
    "lat": 10.9775,
    "lng": 77.026,
    "state": "Tamil Nadu"
  },
  {
    "city": "Mahthi",
    "lat": 25.7281,
    "lng": 86.0093,
    "state": "Bihar"
  },
  {
    "city": "Hunasamaranhalli",
    "lat": 13.1435,
    "lng": 77.62,
    "state": "Karnataka"
  },
  {
    "city": "Vaikam",
    "lat": 9.7667,
    "lng": 76.4,
    "state": "Kerala"
  },
  {
    "city": "Kanke",
    "lat": 23.4348,
    "lng": 85.3206,
    "state": "Jharkhand"
  },
  {
    "city": "Hesarghatta",
    "lat": 13.1391,
    "lng": 77.4783,
    "state": "Karnataka"
  },
  {
    "city": "Raja Pakar",
    "lat": 25.735,
    "lng": 85.3376,
    "state": "Bihar"
  },
  {
    "city": "Kondalampatti",
    "lat": 11.6262,
    "lng": 78.1189,
    "state": "Tamil Nadu"
  },
  {
    "city": "North Guwahati",
    "lat": 26.19,
    "lng": 91.71,
    "state": "Assam"
  },
  {
    "city": "Chinnasekkadu",
    "lat": 13.1609,
    "lng": 80.2573,
    "state": "Tamil Nadu"
  },
  {
    "city": "Balasore",
    "lat": 21.4942,
    "lng": 86.9317,
    "state": "Odisha"
  },
  {
    "city": "Chausa",
    "lat": 25.5283,
    "lng": 87.0322,
    "state": "Bihar"
  },
  {
    "city": "Panniyannur",
    "lat": 11.7538,
    "lng": 75.5528,
    "state": "Kerala"
  },
  {
    "city": "Bakhri",
    "lat": 25.5989,
    "lng": 86.2607,
    "state": "Bihar"
  },
  {
    "city": "Bariarpur",
    "lat": 25.686,
    "lng": 86.0295,
    "state": "Bihar"
  },
  {
    "city": "Behat",
    "lat": 26.2435,
    "lng": 86.2799,
    "state": "Bihar"
  },
  {
    "city": "Bauria",
    "lat": 22.4521,
    "lng": 88.1853,
    "state": "West Bengal"
  },
  {
    "city": "Nerupperichchal",
    "lat": 11.161,
    "lng": 77.374,
    "state": "Tamil Nadu"
  },
  {
    "city": "Pakri",
    "lat": 25.5876,
    "lng": 85.158,
    "state": "Bihar"
  },
  {
    "city": "Mohiuddinnagar",
    "lat": 25.7428,
    "lng": 86.0812,
    "state": "Bihar"
  },
  {
    "city": "Sancoale",
    "lat": 15.467,
    "lng": 73.833,
    "state": "Goa"
  },
  {
    "city": "Dumjor",
    "lat": 22.64,
    "lng": 88.22,
    "state": "West Bengal"
  },
  {
    "city": "Kannankurichchi",
    "lat": 11.6969,
    "lng": 78.1794,
    "state": "Tamil Nadu"
  },
  {
    "city": "Khizrpur",
    "lat": 30.5843,
    "lng": 76.7572,
    "state": "Punjab"
  },
  {
    "city": "Mirpeta",
    "lat": 17.32,
    "lng": 78.52,
    "state": "Andhra Pradesh"
  },
  {
    "city": "Mahiari",
    "lat": 22.59,
    "lng": 88.24,
    "state": "West Bengal"
  },
  {
    "city": "Bhopatpur",
    "lat": 26.4495,
    "lng": 84.8545,
    "state": "Bihar"
  },
  {
    "city": "Pahsara",
    "lat": 25.5482,
    "lng": 86.1667,
    "state": "Bihar"
  },
  {
    "city": "Vandalur",
    "lat": 12.8924,
    "lng": 80.0808,
    "state": "Tamil Nadu"
  },
  {
    "city": "Sarso",
    "lat": 26.2333,
    "lng": 86.1768,
    "state": "Bihar"
  },
  {
    "city": "Dumra",
    "lat": 26.5671,
    "lng": 85.5204,
    "state": "Bihar"
  },
  {
    "city": "Morwa",
    "lat": 25.803,
    "lng": 85.6861,
    "state": "Bihar"
  },
  {
    "city": "Mayahaura",
    "lat": 22.1834,
    "lng": 88.4998,
    "state": "West Bengal"
  },
  {
    "city": "Manjha",
    "lat": 26.4061,
    "lng": 84.5002,
    "state": "Bihar"
  },
  {
    "city": "Ghosai",
    "lat": 25.5562,
    "lng": 87.0304,
    "state": "Bihar"
  },
  {
    "city": "Nilaiyur",
    "lat": 9.8572,
    "lng": 78.0598,
    "state": "Tamil Nadu"
  },
  {
    "city": "Harihans",
    "lat": 26.1457,
    "lng": 84.3476,
    "state": "Bihar"
  },
  {
    "city": "Harpur",
    "lat": 26.4527,
    "lng": 86.071,
    "state": "Bihar"
  },
  {
    "city": "Dumri",
    "lat": 25.4014,
    "lng": 86.1165,
    "state": "Bihar"
  },
  {
    "city": "Sakri",
    "lat": 26.2197,
    "lng": 86.0853,
    "state": "Bihar"
  },
  {
    "city": "Murugampalaiyam",
    "lat": 11.0806,
    "lng": 77.3238,
    "state": "Tamil Nadu"
  },
  {
    "city": "Ulao",
    "lat": 25.4165,
    "lng": 86.0936,
    "state": "Bihar"
  },
  {
    "city": "Laualagaon",
    "lat": 25.494,
    "lng": 87.0412,
    "state": "Bihar"
  },
  {
    "city": "Mahisi",
    "lat": 25.854,
    "lng": 86.469,
    "state": "Bihar"
  },
  {
    "city": "Basatpur",
    "lat": 26.0011,
    "lng": 85.0643,
    "state": "Bihar"
  },
  {
    "city": "Erumapalaiyam",
    "lat": 11.6324,
    "lng": 78.1695,
    "state": "Tamil Nadu"
  },
  {
    "city": "Pachmir",
    "lat": 25.4077,
    "lng": 86.3803,
    "state": "Bihar"
  },
  {
    "city": "Manikpur",
    "lat": 25.91,
    "lng": 86.821,
    "state": "Bihar"
  },
  {
    "city": "Bhogpur",
    "lat": 31.55,
    "lng": 75.63,
    "state": "Punjab"
  },
  {
    "city": "Malancha",
    "lat": 24.666,
    "lng": 87.922,
    "state": "West Bengal"
  },
  {
    "city": "Arajpur",
    "lat": 25.5197,
    "lng": 87.0808,
    "state": "Bihar"
  },
  {
    "city": "Keota",
    "lat": 25.644,
    "lng": 85.8287,
    "state": "Bihar"
  },
  {
    "city": "Harpur Pusa",
    "lat": 25.9667,
    "lng": 85.6667,
    "state": "Bihar"
  },
  {
    "city": "Usmanpur",
    "lat": 24.9218,
    "lng": 88.0124,
    "state": "West Bengal"
  },
  {
    "city": "Dhobauli",
    "lat": 25.4008,
    "lng": 86.1885,
    "state": "Bihar"
  },
  {
    "city": "Baikatpur",
    "lat": 25.4939,
    "lng": 85.3792,
    "state": "Bihar"
  },
  {
    "city": "Raghudebbati",
    "lat": 22.53,
    "lng": 88.2,
    "state": "West Bengal"
  },
  {
    "city": "Lakhnaur",
    "lat": 26.202,
    "lng": 86.309,
    "state": "Bihar"
  },
  {
    "city": "Pariharpur",
    "lat": 26.7114,
    "lng": 85.6797,
    "state": "Bihar"
  },
  {
    "city": "Mohan Eghu",
    "lat": 25.4002,
    "lng": 86.145,
    "state": "Bihar"
  },
  {
    "city": "Nahazari",
    "lat": 22.4347,
    "lng": 88.2487,
    "state": "West Bengal"
  },
  {
    "city": "Abdullahnagar",
    "lat": 25.7683,
    "lng": 87.5557,
    "state": "Bihar"
  },
  {
    "city": "Rampur Jalalpur",
    "lat": 25.6712,
    "lng": 85.8606,
    "state": "Bihar"
  },
  {
    "city": "Kalyanpur Bamaiya",
    "lat": 25.714,
    "lng": 85.9212,
    "state": "Bihar"
  },
  {
    "city": "Khusropur",
    "lat": 25.4817,
    "lng": 85.3849,
    "state": "Bihar"
  },
  {
    "city": "Giria",
    "lat": 24.5167,
    "lng": 88.0667,
    "state": "West Bengal"
  },
  {
    "city": "Pupri",
    "lat": 26.4708,
    "lng": 85.7031,
    "state": "Bihar"
  },
  {
    "city": "Majitha",
    "lat": 31.7571,
    "lng": 74.9589,
    "state": "Punjab"
  },
  {
    "city": "Dhamaun",
    "lat": 25.5999,
    "lng": 85.5479,
    "state": "Bihar"
  },
  {
    "city": "Karahia",
    "lat": 26.4054,
    "lng": 86.149,
    "state": "Bihar"
  },
  {
    "city": "Shankar Saraiya",
    "lat": 26.5967,
    "lng": 84.8526,
    "state": "Bihar"
  },
  {
    "city": "Baharu",
    "lat": 22.204,
    "lng": 88.4283,
    "state": "West Bengal"
  },
  {
    "city": "Mau Dhaneshpur",
    "lat": 25.5899,
    "lng": 85.8337,
    "state": "Bihar"
  },
  {
    "city": "Raiyam",
    "lat": 26.2702,
    "lng": 86.2071,
    "state": "Bihar"
  },
  {
    "city": "Baro",
    "lat": 25.4487,
    "lng": 85.9924,
    "state": "Bihar"
  },
  {
    "city": "Malhipur",
    "lat": 25.4069,
    "lng": 86.0234,
    "state": "Bihar"
  },
  {
    "city": "Mukhtarpur Salkani",
    "lat": 25.6643,
    "lng": 85.7784,
    "state": "Bihar"
  },
  {
    "city": "Jagdispur",
    "lat": 22.65,
    "lng": 88.29,
    "state": "West Bengal"
  },
  {
    "city": "Hargawan",
    "lat": 25.1428,
    "lng": 85.5652,
    "state": "Bihar"
  },
  {
    "city": "Ramnagar",
    "lat": 22.3245,
    "lng": 88.494,
    "state": "West Bengal"
  },
  {
    "city": "Kundal",
    "lat": 25.762,
    "lng": 86.2081,
    "state": "Bihar"
  },
  {
    "city": "Barharwa Kalan",
    "lat": 26.5434,
    "lng": 84.8286,
    "state": "Bihar"
  },
  {
    "city": "Dhumnagar",
    "lat": 26.756,
    "lng": 84.5233,
    "state": "Bihar"
  },
  {
    "city": "Jaypul",
    "lat": 22.7833,
    "lng": 88.5695,
    "state": "West Bengal"
  },
  {
    "city": "Meddappakkam",
    "lat": 12.9166,
    "lng": 80.1939,
    "state": "Tamil Nadu"
  },
  {
    "city": "Tengampudur",
    "lat": 8.1158,
    "lng": 77.4579,
    "state": "Tamil Nadu"
  },
  {
    "city": "Gopalnagar",
    "lat": 24.8063,
    "lng": 88.0796,
    "state": "West Bengal"
  },
  {
    "city": "Itahri",
    "lat": 25.313,
    "lng": 86.5459,
    "state": "Bihar"
  },
  {
    "city": "Mangrauni",
    "lat": 26.3667,
    "lng": 86.0833,
    "state": "Bihar"
  },
  {
    "city": "Palda",
    "lat": 22.68,
    "lng": 75.8939,
    "state": "Madhya Pradesh"
  },
  {
    "city": "Kanhauli Manohar",
    "lat": 25.9755,
    "lng": 84.6853,
    "state": "Bihar"
  },
  {
    "city": "Singhwara",
    "lat": 26.1842,
    "lng": 85.7368,
    "state": "Bihar"
  },
  {
    "city": "Garhpura",
    "lat": 25.6638,
    "lng": 86.1818,
    "state": "Bihar"
  },
  {
    "city": "Puluvappatti",
    "lat": 10.963,
    "lng": 76.8158,
    "state": "Tamil Nadu"
  },
  {
    "city": "Billapadu",
    "lat": 16.6364,
    "lng": 80.9661,
    "state": "Andhra Pradesh"
  },
  {
    "city": "Hasanpur Juned",
    "lat": 25.5915,
    "lng": 85.5238,
    "state": "Bihar"
  },
  {
    "city": "Dogachi",
    "lat": 24.6195,
    "lng": 87.9221,
    "state": "West Bengal"
  },
  {
    "city": "Suchindram",
    "lat": 8.1544,
    "lng": 77.467,
    "state": "Tamil Nadu"
  },
  {
    "city": "Tanakkangulam",
    "lat": 9.8877,
    "lng": 78.0397,
    "state": "Tamil Nadu"
  },
  {
    "city": "Lakho",
    "lat": 25.4113,
    "lng": 86.1792,
    "state": "Bihar"
  },
  {
    "city": "Gundur",
    "lat": 10.7339,
    "lng": 78.7184,
    "state": "Tamil Nadu"
  },
  {
    "city": "Baynala",
    "lat": 22.5277,
    "lng": 88.558,
    "state": "West Bengal"
  },
  {
    "city": "Puttalam",
    "lat": 8.0981,
    "lng": 77.464,
    "state": "Tamil Nadu"
  },
  {
    "city": "Sasan",
    "lat": 25.6883,
    "lng": 86.1907,
    "state": "Bihar"
  },
  {
    "city": "Balaungi",
    "lat": 30.7306,
    "lng": 76.6937,
    "state": "Punjab"
  },
  {
    "city": "Kamrawan",
    "lat": 25.6956,
    "lng": 85.838,
    "state": "Bihar"
  },
  {
    "city": "Babhani Bholwa",
    "lat": 26.0876,
    "lng": 86.7456,
    "state": "Bihar"
  },
  {
    "city": "Fatehpur",
    "lat": 25.5089,
    "lng": 85.1939,
    "state": "Bihar"
  },
  {
    "city": "Chandi",
    "lat": 25.7296,
    "lng": 87.5195,
    "state": "Bihar"
  },
  {
    "city": "Belsandi Tara",
    "lat": 25.7722,
    "lng": 85.9608,
    "state": "Bihar"
  },
  {
    "city": "Raje",
    "lat": 26.2216,
    "lng": 86.1454,
    "state": "Bihar"
  },
  {
    "city": "Mugalivakkam",
    "lat": 13.0205,
    "lng": 80.1653,
    "state": "Tamil Nadu"
  },
  {
    "city": "Ijra",
    "lat": 26.3119,
    "lng": 86.0037,
    "state": "Bihar"
  },
  {
    "city": "Tabhka Khas",
    "lat": 25.6518,
    "lng": 85.9426,
    "state": "Bihar"
  },
  {
    "city": "Bhatranha",
    "lat": 25.9846,
    "lng": 86.6348,
    "state": "Bihar"
  },
  {
    "city": "Tirumalaiyampalaiyam",
    "lat": 10.879,
    "lng": 76.9295,
    "state": "Tamil Nadu"
  },
  {
    "city": "Andipalaiyam",
    "lat": 11.092,
    "lng": 77.315,
    "state": "Tamil Nadu"
  },
  {
    "city": "Beur",
    "lat": 25.569,
    "lng": 85.0944,
    "state": "Bihar"
  },
  {
    "city": "Sahit",
    "lat": 25.5888,
    "lng": 85.7948,
    "state": "Bihar"
  },
  {
    "city": "Bommayapalaiyam",
    "lat": 11.9922,
    "lng": 79.8499,
    "state": "Tamil Nadu"
  },
  {
    "city": "Perumbakkam",
    "lat": 12.9055,
    "lng": 80.1993,
    "state": "Tamil Nadu"
  },
  {
    "city": "Dayalpur Sapha",
    "lat": 25.7122,
    "lng": 85.3188,
    "state": "Bihar"
  },
  {
    "city": "Manappakkam",
    "lat": 13.0108,
    "lng": 80.1686,
    "state": "Tamil Nadu"
  },
  {
    "city": "Nalambur",
    "lat": 13.0867,
    "lng": 80.1703,
    "state": "Tamil Nadu"
  },
  {
    "city": "Narhan",
    "lat": 25.6941,
    "lng": 86.0074,
    "state": "Bihar"
  },
  {
    "city": "Jamira",
    "lat": 25.5535,
    "lng": 84.7063,
    "state": "Bihar"
  },
  {
    "city": "Vengavasal",
    "lat": 12.8991,
    "lng": 80.169,
    "state": "Tamil Nadu"
  },
  {
    "city": "Janai",
    "lat": 22.7157,
    "lng": 88.2426,
    "state": "West Bengal"
  },
  {
    "city": "Tamarakulam",
    "lat": 8.1325,
    "lng": 77.4848,
    "state": "Tamil Nadu"
  },
  {
    "city": "Daharia",
    "lat": 25.5307,
    "lng": 87.5947,
    "state": "Bihar"
  },
  {
    "city": "Gopalpur",
    "lat": 26.1317,
    "lng": 84.3594,
    "state": "Bihar"
  },
  {
    "city": "Kotwapatti Rampur",
    "lat": 25.7153,
    "lng": 84.8063,
    "state": "Bihar"
  },
  {
    "city": "Kiratpur Rajaram",
    "lat": 25.856,
    "lng": 85.285,
    "state": "Bihar"
  },
  {
    "city": "Barwat Pasrain",
    "lat": 26.7925,
    "lng": 84.5469,
    "state": "Bihar"
  },
  {
    "city": "Bahagalpur",
    "lat": 24.5934,
    "lng": 87.9536,
    "state": "West Bengal"
  },
  {
    "city": "Muragacha",
    "lat": 22.69,
    "lng": 88.42,
    "state": "West Bengal"
  },
  {
    "city": "Bela",
    "lat": 25.8103,
    "lng": 85.0157,
    "state": "Bihar"
  },
  {
    "city": "Ottaikkalmantapam",
    "lat": 10.8827,
    "lng": 76.9943,
    "state": "Tamil Nadu"
  },
  {
    "city": "Alampur Gonpura",
    "lat": 25.5404,
    "lng": 85.0511,
    "state": "Bihar"
  },
  {
    "city": "Simri",
    "lat": 26.1639,
    "lng": 85.7617,
    "state": "Bihar"
  },
  {
    "city": "Belwara",
    "lat": 25.7443,
    "lng": 86.4755,
    "state": "Bihar"
  },
  {
    "city": "Chhapra",
    "lat": 26.4005,
    "lng": 85.3721,
    "state": "Bihar"
  },
  {
    "city": "Ayodhyapattanam",
    "lat": 11.6755,
    "lng": 78.2409,
    "state": "Tamil Nadu"
  },
  {
    "city": "Parihara",
    "lat": 25.5378,
    "lng": 86.2728,
    "state": "Bihar"
  },
  {
    "city": "Pariharpur",
    "lat": 26.4026,
    "lng": 86.1256,
    "state": "Bihar"
  },
  {
    "city": "Neykkarappatti",
    "lat": 11.6225,
    "lng": 78.1058,
    "state": "Tamil Nadu"
  },
  {
    "city": "Sisai",
    "lat": 26.1899,
    "lng": 84.5643,
    "state": "Bihar"
  },
  {
    "city": "Rahui",
    "lat": 25.2728,
    "lng": 85.5555,
    "state": "Bihar"
  },
  {
    "city": "Patalia",
    "lat": 25.66,
    "lng": 86.0066,
    "state": "Bihar"
  },
  {
    "city": "Mahespur",
    "lat": 24.8616,
    "lng": 88.0447,
    "state": "West Bengal"
  },
  {
    "city": "Desri",
    "lat": 25.6691,
    "lng": 85.4082,
    "state": "Bihar"
  },
  {
    "city": "Maqsuda",
    "lat": 26.241,
    "lng": 86.0585,
    "state": "Bihar"
  },
  {
    "city": "Charabidya",
    "lat": 22.3271,
    "lng": 88.7879,
    "state": "West Bengal"
  },
  {
    "city": "Sarmastpur",
    "lat": 25.949,
    "lng": 85.5751,
    "state": "Bihar"
  },
  {
    "city": "Marungur",
    "lat": 8.1721,
    "lng": 77.5037,
    "state": "Tamil Nadu"
  },
  {
    "city": "Khanpur",
    "lat": 25.8572,
    "lng": 85.933,
    "state": "Bihar"
  },
  {
    "city": "Ghordaur",
    "lat": 25.7089,
    "lng": 86.612,
    "state": "Bihar"
  },
  {
    "city": "Nohsa",
    "lat": 25.5653,
    "lng": 85.0558,
    "state": "Bihar"
  },
  {
    "city": "Chandi",
    "lat": 22.3503,
    "lng": 88.2828,
    "state": "West Bengal"
  },
  {
    "city": "Goh",
    "lat": 24.9845,
    "lng": 84.6498,
    "state": "Bihar"
  },
  {
    "city": "Jalpura",
    "lat": 25.4862,
    "lng": 84.737,
    "state": "Bihar"
  },
  {
    "city": "Kottaram",
    "lat": 8.1188,
    "lng": 77.5243,
    "state": "Tamil Nadu"
  },
  {
    "city": "Saktipur",
    "lat": 23.864,
    "lng": 88.1987,
    "state": "West Bengal"
  },
  {
    "city": "Marauatpur",
    "lat": 25.6165,
    "lng": 85.4685,
    "state": "Bihar"
  },
  {
    "city": "Chandpura",
    "lat": 25.4966,
    "lng": 86.2104,
    "state": "Bihar"
  },
  {
    "city": "Sukurhutu",
    "lat": 23.4433,
    "lng": 85.2917,
    "state": "Jharkhand"
  },
  {
    "city": "Panapur Langa",
    "lat": 25.723,
    "lng": 85.2878,
    "state": "Bihar"
  },
  {
    "city": "Sarpavaram",
    "lat": 17.0102,
    "lng": 82.225,
    "state": "Andhra Pradesh"
  },
  {
    "city": "Jasauli",
    "lat": 26.4996,
    "lng": 84.8171,
    "state": "Bihar"
  },
  {
    "city": "Sakhmohan",
    "lat": 25.6325,
    "lng": 85.9859,
    "state": "Bihar"
  },
  {
    "city": "Gaurihar Khaliqnagar",
    "lat": 25.9356,
    "lng": 85.4671,
    "state": "Bihar"
  },
  {
    "city": "Katarmala",
    "lat": 25.5036,
    "lng": 86.2447,
    "state": "Bihar"
  },
  {
    "city": "Leama",
    "lat": 26.214,
    "lng": 85.998,
    "state": "Bihar"
  },
  {
    "city": "Sisauna",
    "lat": 26.132,
    "lng": 87.6231,
    "state": "Bihar"
  },
  {
    "city": "Harpur Bochaha",
    "lat": 25.5919,
    "lng": 85.7517,
    "state": "Bihar"
  },
  {
    "city": "Bhabanipur",
    "lat": 24.7153,
    "lng": 87.9227,
    "state": "West Bengal"
  },
  {
    "city": "Bandlaguda",
    "lat": 17.3543,
    "lng": 78.3853,
    "state": "Andhra Pradesh"
  },
  {
    "city": "Parsa",
    "lat": 25.7721,
    "lng": 86.1754,
    "state": "Bihar"
  },
  {
    "city": "Begampur",
    "lat": 22.3705,
    "lng": 88.494,
    "state": "West Bengal"
  },
  {
    "city": "Kotia",
    "lat": 26.275,
    "lng": 86.0532,
    "state": "Bihar"
  },
  {
    "city": "Bandwar",
    "lat": 25.5093,
    "lng": 86.1595,
    "state": "Bihar"
  },
  {
    "city": "Garh Sisai",
    "lat": 25.6253,
    "lng": 85.7887,
    "state": "Bihar"
  },
  {
    "city": "Ahirauliya",
    "lat": 26.5091,
    "lng": 84.7999,
    "state": "Bihar"
  },
  {
    "city": "Deodha",
    "lat": 25.7815,
    "lng": 86.1346,
    "state": "Bihar"
  },
  {
    "city": "Muttanampalaiyam",
    "lat": 11.0845,
    "lng": 77.3969,
    "state": "Tamil Nadu"
  },
  {
    "city": "Mamidipalli",
    "lat": 17.2516,
    "lng": 78.4521,
    "state": "Andhra Pradesh"
  },
  {
    "city": "Sahtah",
    "lat": 25.8567,
    "lng": 85.2407,
    "state": "Bihar"
  },
  {
    "city": "Dhanupra",
    "lat": 25.6992,
    "lng": 86.4716,
    "state": "Bihar"
  },
  {
    "city": "Amtala",
    "lat": 22.22,
    "lng": 88.17,
    "state": "West Bengal"
  },
  {
    "city": "Ninga",
    "lat": 25.4616,
    "lng": 86.0757,
    "state": "Bihar"
  },
  {
    "city": "Bariarpur Kandh",
    "lat": 25.9391,
    "lng": 85.4674,
    "state": "Bihar"
  },
  {
    "city": "Husepur",
    "lat": 26.4609,
    "lng": 84.1699,
    "state": "Bihar"
  },
  {
    "city": "Bharokhara",
    "lat": 25.8655,
    "lng": 85.6834,
    "state": "Bihar"
  },
  {
    "city": "Bilauri",
    "lat": 25.7703,
    "lng": 87.5163,
    "state": "Bihar"
  },
  {
    "city": "Aphaur",
    "lat": 25.8828,
    "lng": 84.7595,
    "state": "Bihar"
  },
  {
    "city": "Kavaratti",
    "lat": 10.5626,
    "lng": 72.6369,
    "state": "Lakshadweep"
  },
  {
    "city": "Dasraha Bhograjpur",
    "lat": 25.5691,
    "lng": 85.6441,
    "state": "Bihar"
  },
  {
    "city": "Vellanur",
    "lat": 13.15,
    "lng": 80.1,
    "state": "Tamil Nadu"
  },
  {
    "city": "Mathila",
    "lat": 25.4715,
    "lng": 84.1438,
    "state": "Bihar"
  },
  {
    "city": "Jamsaut",
    "lat": 25.61,
    "lng": 85.0148,
    "state": "Bihar"
  },
  {
    "city": "Pakkam",
    "lat": 13.1436,
    "lng": 80.028,
    "state": "Tamil Nadu"
  },
  {
    "city": "Bhainsahi",
    "lat": 26.4404,
    "lng": 84.5443,
    "state": "Bihar"
  },
  {
    "city": "Belwa",
    "lat": 26.1056,
    "lng": 87.4916,
    "state": "Bihar"
  },
  {
    "city": "Hanzviur",
    "lat": 34.14,
    "lng": 74.58,
    "state": "Jammu and Kashmīr"
  },
  {
    "city": "Velivennu",
    "lat": 16.8443,
    "lng": 81.6895,
    "state": "Andhra Pradesh"
  },
  {
    "city": "Khangaon",
    "lat": 25.5146,
    "lng": 84.7528,
    "state": "Bihar"
  },
  {
    "city": "Rampur Kudarkatti",
    "lat": 26.0672,
    "lng": 87.4795,
    "state": "Bihar"
  },
  {
    "city": "Bharra",
    "lat": 25.4398,
    "lng": 86.1624,
    "state": "Bihar"
  },
  {
    "city": "Bhalpatti",
    "lat": 26.1853,
    "lng": 86.0509,
    "state": "Bihar"
  },
  {
    "city": "Olhanpur",
    "lat": 25.8855,
    "lng": 84.8186,
    "state": "Bihar"
  },
  {
    "city": "Mayiladi",
    "lat": 8.155,
    "lng": 77.5056,
    "state": "Tamil Nadu"
  },
  {
    "city": "Karmauli",
    "lat": 26.4502,
    "lng": 86.1033,
    "state": "Bihar"
  },
  {
    "city": "Begampur",
    "lat": 22.74,
    "lng": 88.24,
    "state": "West Bengal"
  },
  {
    "city": "Bagnan",
    "lat": 22.47,
    "lng": 87.97,
    "state": "West Bengal"
  },
  {
    "city": "Bawali",
    "lat": 22.415,
    "lng": 88.1889,
    "state": "West Bengal"
  },
  {
    "city": "Kalinagar",
    "lat": 22.4383,
    "lng": 88.115,
    "state": "West Bengal"
  },
  {
    "city": "Natshal",
    "lat": 22.1957,
    "lng": 88.0272,
    "state": "West Bengal"
  },
  {
    "city": "Bhansia",
    "lat": 26.0992,
    "lng": 87.5316,
    "state": "Bihar"
  },
  {
    "city": "Belauncha",
    "lat": 26.2124,
    "lng": 86.3554,
    "state": "Bihar"
  },
  {
    "city": "Chaital",
    "lat": 22.5106,
    "lng": 88.7996,
    "state": "West Bengal"
  },
  {
    "city": "Nao Kothi",
    "lat": 25.5196,
    "lng": 86.1954,
    "state": "Bihar"
  },
  {
    "city": "Chauki",
    "lat": 25.4573,
    "lng": 86.4018,
    "state": "Bihar"
  },
  {
    "city": "Papraur",
    "lat": 25.4413,
    "lng": 86.0378,
    "state": "Bihar"
  },
  {
    "city": "Sultanpur",
    "lat": 25.6214,
    "lng": 85.4637,
    "state": "Bihar"
  },
  {
    "city": "Konand",
    "lat": 25.1729,
    "lng": 85.6842,
    "state": "Bihar"
  },
  {
    "city": "Bithan",
    "lat": 25.6954,
    "lng": 86.2789,
    "state": "Bihar"
  },
  {
    "city": "Mesra",
    "lat": 23.4339,
    "lng": 85.4152,
    "state": "Jharkhand"
  },
  {
    "city": "Shahpur Baghauni",
    "lat": 25.8831,
    "lng": 85.6859,
    "state": "Bihar"
  },
  {
    "city": "Rahiar Kunchi",
    "lat": 25.8627,
    "lng": 86.0924,
    "state": "Bihar"
  },
  {
    "city": "Paura Madan Singh",
    "lat": 25.7917,
    "lng": 85.2333,
    "state": "Bihar"
  },
  {
    "city": "Nilavarappatti",
    "lat": 11.6081,
    "lng": 78.1499,
    "state": "Tamil Nadu"
  },
  {
    "city": "Seonar",
    "lat": 25.4142,
    "lng": 85.8834,
    "state": "Bihar"
  },
  {
    "city": "Panamarattuppatti",
    "lat": 11.562,
    "lng": 78.1649,
    "state": "Tamil Nadu"
  },
  {
    "city": "Samayanallur",
    "lat": 9.9792,
    "lng": 78.0359,
    "state": "Tamil Nadu"
  },
  {
    "city": "Mansinghpur Bijrauli",
    "lat": 25.7552,
    "lng": 85.5099,
    "state": "Bihar"
  },
  {
    "city": "Dhamua",
    "lat": 22.2875,
    "lng": 88.3962,
    "state": "West Bengal"
  },
  {
    "city": "Koila Dewa",
    "lat": 26.4079,
    "lng": 84.1962,
    "state": "Bihar"
  },
  {
    "city": "Dudhpura",
    "lat": 25.7964,
    "lng": 86.1189,
    "state": "Bihar"
  },
  {
    "city": "Bardiha Turki",
    "lat": 25.8059,
    "lng": 85.5441,
    "state": "Bihar"
  },
  {
    "city": "Arniya",
    "lat": 25.715,
    "lng": 85.5448,
    "state": "Bihar"
  },
  {
    "city": "Pachahi",
    "lat": 26.1932,
    "lng": 86.3597,
    "state": "Bihar"
  },
  {
    "city": "Kaith",
    "lat": 25.4776,
    "lng": 86.2001,
    "state": "Bihar"
  },
  {
    "city": "Kumharsan",
    "lat": 25.6421,
    "lng": 86.1971,
    "state": "Bihar"
  },
  {
    "city": "Lathasepura",
    "lat": 25.8131,
    "lng": 85.718,
    "state": "Bihar"
  },
  {
    "city": "Bazid Chak Kasturi",
    "lat": 25.6559,
    "lng": 85.4412,
    "state": "Bihar"
  },
  {
    "city": "Somnaha",
    "lat": 25.9518,
    "lng": 85.7042,
    "state": "Bihar"
  },
  {
    "city": "Mudichchur",
    "lat": 12.911,
    "lng": 80.0693,
    "state": "Tamil Nadu"
  },
  {
    "city": "Sahuli",
    "lat": 26.1118,
    "lng": 84.3485,
    "state": "Bihar"
  },
  {
    "city": "Adalpur",
    "lat": 26.191,
    "lng": 86.0239,
    "state": "Bihar"
  },
  {
    "city": "Amwa Majhar",
    "lat": 26.7362,
    "lng": 84.5818,
    "state": "Bihar"
  },
  {
    "city": "Mannarai",
    "lat": 11.1172,
    "lng": 77.3726,
    "state": "Tamil Nadu"
  },
  {
    "city": "Phulmalik",
    "lat": 25.4132,
    "lng": 86.4255,
    "state": "Bihar"
  },
  {
    "city": "Rangvasa",
    "lat": 22.6435,
    "lng": 75.7886,
    "state": "Madhya Pradesh"
  },
  {
    "city": "Kargahia Purab",
    "lat": 26.7887,
    "lng": 84.5298,
    "state": "Bihar"
  },
  {
    "city": "Kampel",
    "lat": 22.6167,
    "lng": 76.05,
    "state": "Madhya Pradesh"
  },
  {
    "city": "Chettipalaiyam",
    "lat": 10.9125,
    "lng": 77.037,
    "state": "Tamil Nadu"
  },
  {
    "city": "Pongalur",
    "lat": 10.9654,
    "lng": 77.372,
    "state": "Tamil Nadu"
  },
  {
    "city": "Narsingi",
    "lat": 17.3876,
    "lng": 78.357,
    "state": "Andhra Pradesh"
  },
  {
    "city": "Bhawanipur",
    "lat": 26.2385,
    "lng": 86.0995,
    "state": "Bihar"
  },
  {
    "city": "Bishunpur",
    "lat": 25.8029,
    "lng": 85.9886,
    "state": "Bihar"
  },
  {
    "city": "Ramnagar Bankat",
    "lat": 26.7595,
    "lng": 84.6122,
    "state": "Bihar"
  },
  {
    "city": "Perur",
    "lat": 10.9752,
    "lng": 76.9129,
    "state": "Tamil Nadu"
  },
  {
    "city": "Ghanipur Bejha",
    "lat": 25.9281,
    "lng": 85.5548,
    "state": "Bihar"
  },
  {
    "city": "Qutubpur",
    "lat": 25.6279,
    "lng": 85.3684,
    "state": "Bihar"
  },
  {
    "city": "Alagappapuram",
    "lat": 8.1468,
    "lng": 77.5413,
    "state": "Tamil Nadu"
  },
  {
    "city": "Mokarrampur",
    "lat": 26.2176,
    "lng": 86.0433,
    "state": "Bihar"
  },
  {
    "city": "Rampur Rajwa",
    "lat": 25.7057,
    "lng": 86.1781,
    "state": "Bihar"
  },
  {
    "city": "Dumri",
    "lat": 25.735,
    "lng": 84.8762,
    "state": "Bihar"
  },
  {
    "city": "Multi",
    "lat": 22.2847,
    "lng": 88.4053,
    "state": "West Bengal"
  },
  {
    "city": "Chilmil",
    "lat": 25.4563,
    "lng": 86.1364,
    "state": "Bihar"
  },
  {
    "city": "Sitalpur",
    "lat": 25.7764,
    "lng": 85.0283,
    "state": "Bihar"
  },
  {
    "city": "Mahamda",
    "lat": 25.8108,
    "lng": 84.7874,
    "state": "Bihar"
  },
  {
    "city": "Mauji",
    "lat": 25.6585,
    "lng": 86.2313,
    "state": "Bihar"
  },
  {
    "city": "Chandpur",
    "lat": 22.4368,
    "lng": 88.1711,
    "state": "West Bengal"
  },
  {
    "city": "Nayanagar",
    "lat": 25.7465,
    "lng": 86.1027,
    "state": "Bihar"
  },
  {
    "city": "Phaphot",
    "lat": 25.6817,
    "lng": 86.0069,
    "state": "Bihar"
  },
  {
    "city": "Solindabad",
    "lat": 25.8463,
    "lng": 86.5907,
    "state": "Bihar"
  },
  {
    "city": "Morsand",
    "lat": 25.9335,
    "lng": 85.698,
    "state": "Bihar"
  },
  {
    "city": "Sahapur",
    "lat": 22.52,
    "lng": 88.17,
    "state": "West Bengal"
  },
  {
    "city": "Ghoswari",
    "lat": 25.4687,
    "lng": 85.4964,
    "state": "Bihar"
  },
  {
    "city": "Pipra Dewas",
    "lat": 25.4636,
    "lng": 86.0236,
    "state": "Bihar"
  },
  {
    "city": "Sihma",
    "lat": 25.6992,
    "lng": 86.2446,
    "state": "Bihar"
  },
  {
    "city": "Dumri",
    "lat": 25.475,
    "lng": 85.0913,
    "state": "Bihar"
  },
  {
    "city": "Sohana",
    "lat": 30.6833,
    "lng": 76.7,
    "state": "Punjab"
  },
  {
    "city": "Sanrha",
    "lat": 25.7979,
    "lng": 84.7504,
    "state": "Bihar"
  },
  {
    "city": "Masar",
    "lat": 25.5577,
    "lng": 84.5767,
    "state": "Bihar"
  },
  {
    "city": "Simarwara Durgapur",
    "lat": 25.852,
    "lng": 85.4944,
    "state": "Bihar"
  },
  {
    "city": "Koini",
    "lat": 26.4226,
    "lng": 84.5147,
    "state": "Bihar"
  },
  {
    "city": "Kaithinia",
    "lat": 26.2317,
    "lng": 86.2817,
    "state": "Bihar"
  },
  {
    "city": "Lalganj",
    "lat": 25.7297,
    "lng": 87.4799,
    "state": "Bihar"
  },
  {
    "city": "Meghaul",
    "lat": 25.64,
    "lng": 86.02,
    "state": "Bihar"
  },
  {
    "city": "Ettimadai",
    "lat": 10.8911,
    "lng": 76.9087,
    "state": "Tamil Nadu"
  },
  {
    "city": "Muthabana",
    "lat": 24.9203,
    "lng": 88.0329,
    "state": "West Bengal"
  },
  {
    "city": "Mahisanrh",
    "lat": 25.7358,
    "lng": 85.5818,
    "state": "Bihar"
  },
  {
    "city": "Kondaparti",
    "lat": 17.9219,
    "lng": 79.5373,
    "state": "Andhra Pradesh"
  },
  {
    "city": "Mamobihat",
    "lat": 26.1466,
    "lng": 86.1747,
    "state": "Bihar"
  },
  {
    "city": "Ramkali",
    "lat": 22.3351,
    "lng": 88.3562,
    "state": "West Bengal"
  },
  {
    "city": "Aurahi",
    "lat": 26.0355,
    "lng": 86.7467,
    "state": "Bihar"
  },
  {
    "city": "Malinagar",
    "lat": 25.9967,
    "lng": 85.6863,
    "state": "Bihar"
  },
  {
    "city": "Amgachia",
    "lat": 22.4156,
    "lng": 88.3051,
    "state": "West Bengal"
  },
  {
    "city": "Bararam",
    "lat": 26.1572,
    "lng": 84.3627,
    "state": "Bihar"
  },
  {
    "city": "Dhangaraha",
    "lat": 26.0204,
    "lng": 84.7023,
    "state": "Bihar"
  },
  {
    "city": "Naruar",
    "lat": 26.2388,
    "lng": 86.2396,
    "state": "Bihar"
  },
  {
    "city": "Kanchanpur",
    "lat": 25.6636,
    "lng": 85.2703,
    "state": "Bihar"
  },
  {
    "city": "Chicalim",
    "lat": 15.3994,
    "lng": 73.8408,
    "state": "Goa"
  },
  {
    "city": "Gangapur Athar",
    "lat": 25.8214,
    "lng": 85.7123,
    "state": "Bihar"
  },
  {
    "city": "Sikandarpur",
    "lat": 25.3256,
    "lng": 86.5051,
    "state": "Bihar"
  },
  {
    "city": "Bamaiya Harlal",
    "lat": 25.6664,
    "lng": 85.8802,
    "state": "Bihar"
  },
  {
    "city": "Jagatpur",
    "lat": 26.3738,
    "lng": 86.0509,
    "state": "Bihar"
  },
  {
    "city": "Ikkarai Boluvampatti",
    "lat": 10.9669,
    "lng": 76.7996,
    "state": "Tamil Nadu"
  },
  {
    "city": "Malaudh",
    "lat": 30.6333,
    "lng": 75.9356,
    "state": "Punjab"
  },
  {
    "city": "Gamharia",
    "lat": 26.0561,
    "lng": 86.7243,
    "state": "Bihar"
  },
  {
    "city": "Khanpur Khairanti",
    "lat": 26.1456,
    "lng": 84.3334,
    "state": "Bihar"
  },
  {
    "city": "Semri",
    "lat": 25.6246,
    "lng": 85.7672,
    "state": "Bihar"
  },
  {
    "city": "Kaithwar",
    "lat": 26.1678,
    "lng": 86.2575,
    "state": "Bihar"
  },
  {
    "city": "Hathaura",
    "lat": 26.1744,
    "lng": 84.3294,
    "state": "Bihar"
  },
  {
    "city": "Malaimachchampatti",
    "lat": 10.9058,
    "lng": 77.005,
    "state": "Tamil Nadu"
  },
  {
    "city": "Jahangirpur Salkhani",
    "lat": 25.8335,
    "lng": 85.4795,
    "state": "Bihar"
  },
  {
    "city": "Telkathu",
    "lat": 26.1124,
    "lng": 84.3733,
    "state": "Bihar"
  },
  {
    "city": "Harua",
    "lat": 24.5249,
    "lng": 87.9931,
    "state": "West Bengal"
  },
  {
    "city": "Odayarpatti",
    "lat": 11.6663,
    "lng": 78.2144,
    "state": "Tamil Nadu"
  },
  {
    "city": "Khundawandpur",
    "lat": 25.6689,
    "lng": 86.0363,
    "state": "Bihar"
  },
  {
    "city": "Ukhai Purbari Patti",
    "lat": 26.2471,
    "lng": 84.4066,
    "state": "Bihar"
  },
  {
    "city": "Bhachhi",
    "lat": 26.3404,
    "lng": 86.0585,
    "state": "Bihar"
  },
  {
    "city": "Thakurainia",
    "lat": 26.2098,
    "lng": 86.0191,
    "state": "Bihar"
  },
  {
    "city": "Mamnur",
    "lat": 17.9092,
    "lng": 79.5926,
    "state": "Andhra Pradesh"
  },
  {
    "city": "Mirzanagar",
    "lat": 25.7726,
    "lng": 85.3804,
    "state": "Bihar"
  },
  {
    "city": "Nawanagar",
    "lat": 25.3861,
    "lng": 84.2069,
    "state": "Bihar"
  },
  {
    "city": "Chalkari",
    "lat": 23.7582,
    "lng": 85.9557,
    "state": "Jharkhand"
  },
  {
    "city": "Karsaut",
    "lat": 26.1298,
    "lng": 84.4825,
    "state": "Bihar"
  },
  {
    "city": "Nazira",
    "lat": 22.218,
    "lng": 88.2757,
    "state": "West Bengal"
  },
  {
    "city": "Bhasaula Danapur",
    "lat": 25.5509,
    "lng": 85.0308,
    "state": "Bihar"
  },
  {
    "city": "Gurmia",
    "lat": 25.819,
    "lng": 85.2295,
    "state": "Bihar"
  },
  {
    "city": "Sagarpur",
    "lat": 26.2306,
    "lng": 86.0732,
    "state": "Bihar"
  },
  {
    "city": "Bhadwar",
    "lat": 25.5576,
    "lng": 84.7559,
    "state": "Bihar"
  },
  {
    "city": "Avanashipalaiyam",
    "lat": 10.9696,
    "lng": 77.4352,
    "state": "Tamil Nadu"
  },
  {
    "city": "Paharpur",
    "lat": 25.7225,
    "lng": 86.6203,
    "state": "Bihar"
  },
  {
    "city": "Mahadipur",
    "lat": 24.8566,
    "lng": 88.1248,
    "state": "West Bengal"
  },
  {
    "city": "Sakaddi",
    "lat": 25.5771,
    "lng": 84.7554,
    "state": "Bihar"
  },
  {
    "city": "Iarpur",
    "lat": 22.2998,
    "lng": 88.2994,
    "state": "West Bengal"
  },
  {
    "city": "Sibkund",
    "lat": 25.3041,
    "lng": 86.399,
    "state": "Bihar"
  },
  {
    "city": "Gaurdah",
    "lat": 25.7097,
    "lng": 86.557,
    "state": "Bihar"
  },
  {
    "city": "Pachrukhi",
    "lat": 26.1593,
    "lng": 84.4087,
    "state": "Bihar"
  },
  {
    "city": "Fatehpur Bala",
    "lat": 25.8338,
    "lng": 85.6928,
    "state": "Bihar"
  },
  {
    "city": "Katridih",
    "lat": 25.0829,
    "lng": 85.6334,
    "state": "Bihar"
  },
  {
    "city": "Jasauli Patti",
    "lat": 26.4912,
    "lng": 84.8818,
    "state": "Bihar"
  },
  {
    "city": "Hazrat Shiura",
    "lat": 25.5976,
    "lng": 85.6119,
    "state": "Bihar"
  },
  {
    "city": "Rampur",
    "lat": 25.9256,
    "lng": 84.7468,
    "state": "Bihar"
  },
  {
    "city": "Kahla",
    "lat": 26.3747,
    "lng": 84.5433,
    "state": "Bihar"
  },
  {
    "city": "Nalikkalpatti",
    "lat": 11.6021,
    "lng": 78.134,
    "state": "Tamil Nadu"
  },
  {
    "city": "Saraunja",
    "lat": 25.769,
    "lng": 86.5273,
    "state": "Bihar"
  },
  {
    "city": "Tekpanja",
    "lat": 22.2101,
    "lng": 88.3088,
    "state": "West Bengal"
  },
  {
    "city": "Lohna",
    "lat": 26.2314,
    "lng": 86.2095,
    "state": "Bihar"
  },
  {
    "city": "Kandiyankovil",
    "lat": 11.0147,
    "lng": 77.4695,
    "state": "Tamil Nadu"
  },
  {
    "city": "Madhuban",
    "lat": 25.8838,
    "lng": 86.8176,
    "state": "Bihar"
  },
  {
    "city": "Gadaul",
    "lat": 26.1287,
    "lng": 86.2375,
    "state": "Bihar"
  },
  {
    "city": "Amiawar",
    "lat": 25.0405,
    "lng": 84.3096,
    "state": "Bihar"
  },
  {
    "city": "Chanp",
    "lat": 26.1951,
    "lng": 84.39,
    "state": "Bihar"
  },
  {
    "city": "Chak Pahar",
    "lat": 25.7986,
    "lng": 85.6218,
    "state": "Bihar"
  },
  {
    "city": "Hetanpur",
    "lat": 25.5821,
    "lng": 85.5495,
    "state": "Bihar"
  },
  {
    "city": "Chak Habib",
    "lat": 25.7238,
    "lng": 85.8789,
    "state": "Bihar"
  },
  {
    "city": "Bakhra",
    "lat": 26.0333,
    "lng": 85.1,
    "state": "Bihar"
  },
  {
    "city": "Azizpur Chande",
    "lat": 25.7932,
    "lng": 85.5945,
    "state": "Bihar"
  },
  {
    "city": "Chakla Waini",
    "lat": 25.9081,
    "lng": 85.6836,
    "state": "Bihar"
  },
  {
    "city": "Nijgaon Paranpur",
    "lat": 25.1559,
    "lng": 87.9732,
    "state": "West Bengal"
  },
  {
    "city": "Sanwas",
    "lat": 25.1795,
    "lng": 85.7148,
    "state": "Bihar"
  },
  {
    "city": "Kanyakulam",
    "lat": 8.2012,
    "lng": 77.4015,
    "state": "Tamil Nadu"
  },
  {
    "city": "Pokhraira",
    "lat": 26.0711,
    "lng": 85.2034,
    "state": "Bihar"
  },
  {
    "city": "Pattanam",
    "lat": 10.9808,
    "lng": 77.0542,
    "state": "Tamil Nadu"
  },
  {
    "city": "Tokatippa",
    "lat": 16.2836,
    "lng": 81.5024,
    "state": "Andhra Pradesh"
  },
  {
    "city": "Charuanwan",
    "lat": 25.1348,
    "lng": 85.6812,
    "state": "Bihar"
  },
  {
    "city": "Dispur",
    "lat": 26.15,
    "lng": 91.77,
    "state": "Assam"
  },
  {
    "city": "Daman",
    "lat": 20.4169,
    "lng": 72.834,
    "state": "Dadra and Nagar Haveli and Daman and Diu"
  },
  {
    "city": "Dharamshala",
    "lat": 32.2186,
    "lng": 76.3183,
    "state": "Himachal Pradesh"
  },
  {
    "city": "Bhararisain",
    "lat": 30.0986,
    "lng": 79.2658,
    "state": "Uttarakhand"
  },
  {
    "city": "Kadaiyanallur",
    "lat": 9.0743,
    "lng": 77.3419,
    "state": "Tamil Nadu"
  },
  {
    "city": "Luckeesarai",
    "lat": 25.1678,
    "lng": 86.0944,
    "state": "Bihar"
  },
  {
    "city": "Tellicherry",
    "lat": 11.7489,
    "lng": 75.507,
    "state": "Kerala"
  },